,location,latitude,longitude,index,year
0,"Kabul, Afghanistan",34.5260109,69.1776838,16.64889246,1850
1,"Tirana, Albania",41.3281482,19.8184435,10.46568875,1850
2,"Algiers, Algeria",36.7729309,3.0588291,5.948866665,1850
3,"Luanda, Angola",-8.8272699,13.2439512,20.59079828,1850
4,"Buenos Aires, Argentina",-34.6073387,-58.4432852,5.835225293,1850
5,"Yerevan, Armenia",40.1777112,44.5126233,14.44008346,1850
6,"Sydney, Australia",-33.8698439,151.2082848,3.186208089,1850
7,"Canberra, Australia",-35.2975906,149.1012676,4.126321517,1850
8,"Baku, Azerbaijan",40.3755885,49.8328009,18.20047505,1850
9,"Manama, Bahrain",-8.79691,125.45785,24.59121599,1850
10,"Dhaka, Bangladesh",23.7644025,90.389015,28.85844606,1850
11,"Minsk, Belarus",53.9024716,27.5618225,13.46070731,1850
12,"Brussels, Belgium",50.8550018,4.35123337611662,17.62086602,1850
13,"Cotonou, Benin",6.3676953,2.4252507,21.66475735,1850
14,"Thimphu, Bhutan",27.4713546,89.6336729,9.773999065,1850
15,"La Paz, Bolivia",-16.4955455,-68.1336229,11.83235586,1850
16,"Gaborone, Botswana",-24.6581357,25.9088474,8.388863495,1850
17,"Brasília, Brazil",-10.3333333,-53.2,4.260219509,1850
18,"Sofia, Bulgaria",-15.2538402,48.2562163,13.78295673,1850
19,"Ouagadougou, Burkina Faso",12.3681873,-1.5270944,39.98984525,1850
20,"Bujumbura, Burundi",-3.3638125,29.3675028,16.40380159,1850
21,"Phnom Penh, Cambodia",11.568271,104.9224426,27.20256729,1850
22,"Yaoundé, Cameroon",3.8689867,11.5213344,34.66754416,1850
23,"Ottawa, Canada",45.4110870626566,-75.7083256476122,6.47500572,1850
24,"Bangui, CAR",4.3635118,18.5835913,32.50397722,1850
25,"N'Djaména, Chad",12.1191543,15.0502758,44.85450077,1850
26,"Santiago, Chile",-33.4377756,-70.6504502,4.460571953,1850
27,"Hangzhou, China",30.2489634,120.2052342,15.2098414,1850
28,"Beijing, China",40.190632,116.412144,12.2977528,1850
29,"Bogotá, Colombia",4.6533816,-74.0836333,7.608988928,1850
30,"Brazzaville, Congo",-4.2694407,15.2712256,38.18410491,1850
31,"San José, Costa Rica",9.9325427,-84.0795782,13.44477184,1850
32,"Abidjan, Côte d'Ivoire",5.320357,-4.016107,14.42760767,1850
33,"Zagreb, Croatia",45.8130967,15.9772795,12.76041107,1850
34,"Havana, Cuba",23.135305,-82.3589631,5.534942495,1850
35,"Nicosia, Cyprus",35.1746503,33.3638783,10.63944829,1850
36,"Prague, Czechia",50.0874654,14.4212535,18.75005781,1850
37,"Kinshasa, DRC",-4.3217055,15.3125974,37.60578006,1850
38,"Copenhagen, Denmark",55.6867243,12.5700724,10.07586404,1850
39,"Djibouti, Djibouti",11.8145966,42.8453061,30.73623773,1850
40,"Cairo, Egypt",30.0443879,31.2357257,18.37133737,1850
41,"San Salvador, El Salvador",13.6989939,-89.1914249,13.12981664,1850
42,"Malabo, Equatorial Guinea",3.741877,8.7740663,28.41433867,1850
43,"Asmara, Eritrea",15.3389667,38.9326763,18.13397463,1850
44,"Addis Ababa, Ethiopia",9.0358287,38.7524127,5.349987295,1850
45,"Suva, Fiji",-18.1415884,178.4421662,6.015964744,1850
46,"Paris, France",48.8534951,2.3483915,16.66075567,1850
47,"Libreville, Gabon",0.4086518,9.4418849,17.77690075,1850
48,"Tbilisi, Georgia",41.6934591,44.8014495,10.82750529,1850
49,"Berlin, Germany",52.510885,13.3989367,16.79248306,1850
50,"Accra, Ghana",5.5571096,-0.2012376,20.48045823,1850
51,"Athens, Greece",37.9887791133275,23.7191086388293,10.30283788,1850
52,"Guatemala City, Guatemala",14.6416142,-90.5132836,10.68417842,1850
53,"Conakry, Guinea",9.5170602,-13.6998434,25.00676426,1850
54,"Bissau, Guinea-Bissau",11.87018055,-15.6077045647727,29.25389536,1850
55,"Port-au-Prince, Haiti",18.547327,-72.3395928,9.480559616,1850
56,"Tegucigalpa, Honduras",14.1057433,-87.2040052,21.53910908,1850
57,"Budapest, Hungary",47.48138955,19.1460941269125,30.02472988,1850
58,"Delhi, India",28.6273928,77.1716954,48.68492993,1850
59,"Jakarta, Indonesia",-6.175247,106.8270488,7.044425356,1850
60,"Tehran, Iran",35.6892523,51.3896004,17.10450764,1850
61,"Baghdad, Iraq",33.3061701,44.3872213,27.62921651,1850
62,"Dublin, Ireland",53.3493795,-6.2605593,9.743348257,1850
63,"Jerusalem, Israel",31.7788242,35.2257626,10.28570752,1850
64,"Rome, Italy",41.8933203,12.4829321,12.23573575,1850
65,"Tokyo, Japan",35.6821936,139.762221,7.303037678,1850
66,"Amman, Jordan",31.9515694,35.9239625,13.88829292,1850
67,"Temirtau, Kazakhstan",50.0587825,72.9535681,10.56137177,1850
68,"Astana, Kazakhstan",51.1282205,71.4306682,8.899362338,1850
69,"Nairobi, Kenya",-1.30261485,36.8288420181373,9.035059924,1850
70,"Kuwait City, Kuwait",29.3796532,47.9734174,34.28416321,1850
71,"Bishkek, Kyrgyzstan",42.8777895,74.6066926,15.72271217,1850
72,"Vientiane, Laos",17.9640988,102.6133707,31.01190591,1850
73,"Riga, Latvia",56.9493977,24.1051846,16.62453654,1850
74,"Monrovia, Liberia",6.328034,-10.797788,13.86924026,1850
75,"Tripoli, Libya",32.896672,13.1777923,17.07584439,1850
76,"Vilnius, Lithuania",54.6870458,25.2829111,10.36923848,1850
77,"Luxembourg, Luxembourg",49.6112768,6.129799,14.60961774,1850
78,"Antananarivo, Madagascar",-18.9100122,47.5255809,10.95352133,1850
79,"Lilongwe, Malawi",-13.9875107,33.768144,13.70223898,1850
80,"Kuala Lumpur, Malaysia",3.1516964,101.6942371,4.788056049,1850
81,"Bamako, Mali",12.61326555,-7.9847391362413,28.51683231,1850
82,"Valletta, Malta",35.8989818,14.5136759,9.732592605,1850
83,"Nouakchott, Mauritania",18.0618918,-15.9311481578329,54.83029493,1850
84,"Port Louis, Mauritius",-20.1624522,57.5028044,13.54924974,1850
85,"Mexico City, Mexico",19.4326296,-99.1331785,7.986869719,1850
86,"Chisinau, Moldova",47.0245117,28.8322923,15.08990152,1850
87,"Ulaanbaatar, Mongolia",47.94097405,106.917963752256,31.88968193,1850
88,"Podgorica, Montenegro",42.4415238,19.2621081,11.31035878,1850
89,"Rabat, Morocco",34.02236,-6.8340222,8.037269392,1850
90,"Maputo, Mozambique",-25.966213,32.56745,9.430920246,1850
91,"Windhoek, Namibia",-22.5776104,17.0772739,9.679280627,1850
92,"Kathmandu, Nepal",27.708317,85.3205817,16.41545774,1850
93,"Amsterdam, Netherlands",52.3730796,4.8924534,15.22023248,1850
94,"Wellington, New Zealand",-41.2887953,174.7772114,5.1135092,1850
95,"Managua, Nicaragua",12.1544035,-86.2737642,13.87951882,1850
96,"Niamey, Niger",13.524834,2.109823,40.06037585,1850
97,"Abuja, Nigeria",9.0643305,7.4892974,38.91997327,1850
98,"Pyongyang, North Korea",39.0167979,125.7473609,15.2591535,1850
99,"Skopje, North Macedonia",41.9961816,21.4319213,11.71165991,1850
100,"Oslo, Norway",59.9133301,10.7389701,6.783076241,1850
101,"Muscat, Oman",23.5882019,58.3829448,28.49328248,1850
102,"Islamabad, Pakistan",33.6938118,73.0651511,19.38299556,1850
103,"Panama City, Panama",8.6671353550533,-80.8169594275597,9.28060336,1850
104,"Asunción, Paraguay",-25.2800459,-57.6343814,12.7433874,1850
105,"Lima, Peru",-12.0621065,-77.0365256,6.640109743,1850
106,"Manila, Philippines",14.5906346,120.9799964,11.79861686,1850
107,"Warsaw, Poland",52.2337172,21.0714322356365,17.04314414,1850
108,"Lisbon, Portugal",38.7077507,-9.1365919,10.19859219,1850
109,"Doha, Qatar",24.73677015,81.4466022001494,28.61885282,1850
110,"Bucharest, Romania",44.4361414,26.1027202,14.75350506,1850
111,"Moscow, Russia",55.7505412,37.6174782,22.1559643,1850
112,"Kigali, Rwanda",-1.8859597,30.1296751,14.58274153,1850
113,"Apia, Samoa",-13.8344639,-171.7649144,4.386375946,1850
114,"San Marino, San Marino",43.9458623,12.458306,11.51442804,1850
115,"São Tomé, São Tomé and Príncipe",0.3389242,6.7313031,12.29671092,1850
116,"Riyadh, Saudi Arabia",24.638916,46.7160104,57.93804476,1850
117,"Dakar, Senegal",14.693425,-17.447938,35.28393182,1850
118,"Belgrade, Serbia",44.8178131,20.4568974,7.903238134,1850
119,"Victoria, Seychelles",-36.5986096,144.6780052,7.817674822,1850
120,"Freetown, Sierra Leone",8.479004,-13.26795,19.38773209,1850
121,"Singapore, Singapore",1.357107,103.8194992,6.415700088,1850
122,"Bratislava, Slovakia",48.1516988,17.1093063,23.44102848,1850
123,"Ljubljana, Slovenia",46.0500268,14.5069289,11.02481111,1850
124,"Honiara, Solomon Islands",-9.43779755,159.962417478605,6.51611447,1850
125,"Mogadishu, Somalia",2.0349312,45.3419183,9.57968588,1850
126,"Pretoria, South Africa",-25.7459277,28.1879101,11.96584916,1850
127,"Seoul, South Korea",37.5666791,126.9782914,8.696628436,1850
128,"Juba, South Sudan",4.8459246,31.5959173,26.59634566,1850
129,"Madrid, Spain",40.4167047,-3.7035825,4.797538411,1850
130,"Colombo, Sri Lanka",6.9388614,79.8542005,8.670063283,1850
131,"Khartoum, Sudan",15.5635972,32.5349123,35.58448924,1850
132,"Paramaribo, Suriname",5.8247628,-55.1703941,14.97550791,1850
133,"Stockholm, Sweden",59.3251172,18.0710935,4.993147436,1850
134,"Bern, Switzerland",46.9484742,7.4521749,14.77816932,1850
135,"Damascus, Syria",33.5145227857709,36.2904335592578,12.91141699,1850
136,"Taipei, Taiwan",25.0375198,121.5636796,7.184475529,1850
137,"Dushanbe, Tajikistan",38.5856947,68.7603746751885,17.68633198,1850
138,"Dar es Salaam, Tanzania",-6.8160837,39.2803583,11.10675672,1850
139,"Bangkok, Thailand",13.7524938,100.4935089,10.5024275,1850
140,"Lomé, Togo",6.15803455,1.25168237324663,29.33279314,1850
141,"Nukuʻalofa, Tonga",-21.1343401,-175.201808,4.486943321,1850
142,"Tunis, Tunisia",36.8002068,10.1857757,12.84447604,1850
143,"Ankara, Turkey",39.7160439,32.7059948,8.352131343,1850
144,"Ashgabat, Turkmenistan",37.9404648,58.3823487,31.9028311,1850
145,"Kampala, Uganda",0.3177137,32.5813539,18.56590554,1850
146,"Kyiv, Ukraine",50.4500336,30.5241361,16.08523228,1850
147,"Abu Dhabi, UAE",24.4538352,54.3774014,20.47262208,1850
148,"London, United Kingdom",51.4893335,-0.144055084527687,31.59813741,1850
149,"Washington, D.C., USA",38.9240943816741,-77.0091011073296,16.14918576,1850
150,"Tashkent, Uzbekistan",41.3123363,69.2787079,20.51117254,1850
151,"Port Vila, Vanuatu",-17.7414972,168.3150163,6.768958732,1850
152,"Vatican City, Vatican City",41.903411,12.4528527,11.88264187,1850
153,"Caracas, Venezuela",10.5060934,-66.9146008,14.89448996,1850
154,"Hanoi, Vietnam",21.0283334,105.854041,8.707878144,1850
155,"Sana'a, Yemen",15.3538569,44.2058841,18.81422197,1850
156,"Lusaka, Zambia",-15.4163395,28.2818414,16.48006713,1850
157,"Harare, Zimbabwe",-17.8567035,31.0601584,14.65042246,1850
158,"Leeds, United Kingdom",53.7974185,-1.5437941,28.49982882,1850
159,"Exeter, United Kingdom",50.7256138,-3.5269209,16.68589126,1850
160,"Edinburgh, United Kingdom",55.9533456,-3.1883749,16.71530692,1850
161,"Los Angeles, USA",34.0536909,-118.242766,9.166269861,1850
162,"Nanjing, China",32.0438284,118.7788631,15.1952376,1850
163,"Shanghai, China",31.2312707,121.4700152,12.51357942,1850
164,"Chennai, India",13.0836939,80.270186,12.83178361,1850
165,"Ahmedabad, India",23.0215374,72.5800568,29.83780889,1850
166,"Fairbanks, USA",64.837845,-147.716675,22.85056576,1850
167,"Birmingham, UK",52.4796992,-1.9026911,25.3094511,1850
168,"São Paulo, Brazil",-23.5506507,-46.6333824,2.530579822,1850
169,"Singapore, Singapore.1",1.357107,103.8194992,6.626179582,1850
170,"Cape Town, South Africa",-33.928992,18.417396,3.817879948,1850
171,"Birmingham, United Kingdom",52.4796992,-1.9026911,25.3094511,1850
172,"Cardiff, United Kingdom",51.4816546,-3.1791934,37.75340827,1850
173,"Belfast, United Kingdom",54.596391,-5.9301829,12.13465474,1850
174,"Reykjavík, Iceland",64.145981,-21.9422367,3.897538824,1850
175,"Yakutsk, Russia",62.0274078,129.7319787,5.457011572,1850
176,"Kabul, Afghanistan",34.5260109,69.1776838,18.07170028,1851
177,"Tirana, Albania",41.3281482,19.8184435,9.965611329,1851
178,"Algiers, Algeria",36.7729309,3.0588291,6.388587014,1851
179,"Luanda, Angola",-8.8272699,13.2439512,19.85026973,1851
180,"Buenos Aires, Argentina",-34.6073387,-58.4432852,5.745548289,1851
181,"Yerevan, Armenia",40.1777112,44.5126233,14.95650663,1851
182,"Sydney, Australia",-33.8698439,151.2082848,3.045166729,1851
183,"Canberra, Australia",-35.2975906,149.1012676,3.938161861,1851
184,"Baku, Azerbaijan",40.3755885,49.8328009,23.08551342,1851
185,"Manama, Bahrain",-8.79691,125.45785,26.31429921,1851
186,"Dhaka, Bangladesh",23.7644025,90.389015,30.21707975,1851
187,"Minsk, Belarus",53.9024716,27.5618225,13.39787221,1851
188,"Brussels, Belgium",50.8550018,4.35123337611662,17.53505964,1851
189,"Cotonou, Benin",6.3676953,2.4252507,25.09141035,1851
190,"Thimphu, Bhutan",27.4713546,89.6336729,10.71473631,1851
191,"La Paz, Bolivia",-16.4955455,-68.1336229,12.11119827,1851
192,"Gaborone, Botswana",-24.6581357,25.9088474,8.685680573,1851
193,"Brasília, Brazil",-10.3333333,-53.2,4.2111276,1851
194,"Sofia, Bulgaria",-15.2538402,48.2562163,12.96645428,1851
195,"Ouagadougou, Burkina Faso",12.3681873,-1.5270944,44.49807946,1851
196,"Bujumbura, Burundi",-3.3638125,29.3675028,16.9888218,1851
197,"Phnom Penh, Cambodia",11.568271,104.9224426,26.56313302,1851
198,"Yaoundé, Cameroon",3.8689867,11.5213344,37.99433314,1851
199,"Ottawa, Canada",45.4110870626566,-75.7083256476122,6.774227194,1851
200,"Bangui, CAR",4.3635118,18.5835913,33.99192837,1851
201,"N'Djaména, Chad",12.1191543,15.0502758,50.44844961,1851
202,"Santiago, Chile",-33.4377756,-70.6504502,4.174136839,1851
203,"Hangzhou, China",30.2489634,120.2052342,14.23920259,1851
204,"Beijing, China",40.190632,116.412144,11.66384108,1851
205,"Bogotá, Colombia",4.6533816,-74.0836333,7.124986196,1851
206,"Brazzaville, Congo",-4.2694407,15.2712256,35.53276003,1851
207,"San José, Costa Rica",9.9325427,-84.0795782,13.05356898,1851
208,"Abidjan, Côte d'Ivoire",5.320357,-4.016107,16.92029567,1851
209,"Zagreb, Croatia",45.8130967,15.9772795,11.67673562,1851
210,"Havana, Cuba",23.135305,-82.3589631,5.61170074,1851
211,"Nicosia, Cyprus",35.1746503,33.3638783,9.92762307,1851
212,"Prague, Czechia",50.0874654,14.4212535,17.80524536,1851
213,"Kinshasa, DRC",-4.3217055,15.3125974,34.91906572,1851
214,"Copenhagen, Denmark",55.6867243,12.5700724,10.48796405,1851
215,"Djibouti, Djibouti",11.8145966,42.8453061,30.95956835,1851
216,"Cairo, Egypt",30.0443879,31.2357257,18.26149453,1851
217,"San Salvador, El Salvador",13.6989939,-89.1914249,11.82116067,1851
218,"Malabo, Equatorial Guinea",3.741877,8.7740663,34.44066884,1851
219,"Asmara, Eritrea",15.3389667,38.9326763,18.19705912,1851
220,"Addis Ababa, Ethiopia",9.0358287,38.7524127,4.986853679,1851
221,"Suva, Fiji",-18.1415884,178.4421662,5.906062097,1851
222,"Paris, France",48.8534951,2.3483915,17.02955811,1851
223,"Libreville, Gabon",0.4086518,9.4418849,19.61112625,1851
224,"Tbilisi, Georgia",41.6934591,44.8014495,11.59365469,1851
225,"Berlin, Germany",52.510885,13.3989367,16.50559123,1851
226,"Accra, Ghana",5.5571096,-0.2012376,24.10972732,1851
227,"Athens, Greece",37.9887791133275,23.7191086388293,9.43205386,1851
228,"Guatemala City, Guatemala",14.6416142,-90.5132836,10.12896669,1851
229,"Conakry, Guinea",9.5170602,-13.6998434,27.55824847,1851
230,"Bissau, Guinea-Bissau",11.87018055,-15.6077045647727,30.00580786,1851
231,"Port-au-Prince, Haiti",18.547327,-72.3395928,9.872301855,1851
232,"Tegucigalpa, Honduras",14.1057433,-87.2040052,19.72400844,1851
233,"Budapest, Hungary",47.48138955,19.1460941269125,26.57677125,1851
234,"Delhi, India",28.6273928,77.1716954,47.70327749,1851
235,"Jakarta, Indonesia",-6.175247,106.8270488,7.060300557,1851
236,"Tehran, Iran",35.6892523,51.3896004,20.22967694,1851
237,"Baghdad, Iraq",33.3061701,44.3872213,27.98457637,1851
238,"Dublin, Ireland",53.3493795,-6.2605593,9.856417789,1851
239,"Jerusalem, Israel",31.7788242,35.2257626,9.554554324,1851
240,"Rome, Italy",41.8933203,12.4829321,12.4942369,1851
241,"Tokyo, Japan",35.6821936,139.762221,7.028328776,1851
242,"Amman, Jordan",31.9515694,35.9239625,12.90380164,1851
243,"Temirtau, Kazakhstan",50.0587825,72.9535681,12.03421411,1851
244,"Astana, Kazakhstan",51.1282205,71.4306682,10.45813879,1851
245,"Nairobi, Kenya",-1.30261485,36.8288420181373,9.044950074,1851
246,"Kuwait City, Kuwait",29.3796532,47.9734174,35.27766693,1851
247,"Bishkek, Kyrgyzstan",42.8777895,74.6066926,18.38023338,1851
248,"Vientiane, Laos",17.9640988,102.6133707,32.04550673,1851
249,"Riga, Latvia",56.9493977,24.1051846,16.37617304,1851
250,"Monrovia, Liberia",6.328034,-10.797788,16.81586089,1851
251,"Tripoli, Libya",32.896672,13.1777923,16.8709682,1851
252,"Vilnius, Lithuania",54.6870458,25.2829111,10.17375625,1851
253,"Luxembourg, Luxembourg",49.6112768,6.129799,15.12783947,1851
254,"Antananarivo, Madagascar",-18.9100122,47.5255809,11.26549447,1851
255,"Lilongwe, Malawi",-13.9875107,33.768144,11.83637958,1851
256,"Kuala Lumpur, Malaysia",3.1516964,101.6942371,4.718833571,1851
257,"Bamako, Mali",12.61326555,-7.9847391362413,30.08873058,1851
258,"Valletta, Malta",35.8989818,14.5136759,9.858330223,1851
259,"Nouakchott, Mauritania",18.0618918,-15.9311481578329,59.94618305,1851
260,"Port Louis, Mauritius",-20.1624522,57.5028044,13.63820584,1851
261,"Mexico City, Mexico",19.4326296,-99.1331785,7.858343365,1851
262,"Chisinau, Moldova",47.0245117,28.8322923,15.06595359,1851
263,"Ulaanbaatar, Mongolia",47.94097405,106.917963752256,30.64862405,1851
264,"Podgorica, Montenegro",42.4415238,19.2621081,10.97672681,1851
265,"Rabat, Morocco",34.02236,-6.8340222,8.804494857,1851
266,"Maputo, Mozambique",-25.966213,32.56745,9.918726001,1851
267,"Windhoek, Namibia",-22.5776104,17.0772739,10.43494077,1851
268,"Kathmandu, Nepal",27.708317,85.3205817,15.51376292,1851
269,"Amsterdam, Netherlands",52.3730796,4.8924534,15.64016411,1851
270,"Wellington, New Zealand",-41.2887953,174.7772114,5.36776461,1851
271,"Managua, Nicaragua",12.1544035,-86.2737642,12.74306479,1851
272,"Niamey, Niger",13.524834,2.109823,44.56256912,1851
273,"Abuja, Nigeria",9.0643305,7.4892974,40.786148,1851
274,"Pyongyang, North Korea",39.0167979,125.7473609,14.65903963,1851
275,"Skopje, North Macedonia",41.9961816,21.4319213,11.02592214,1851
276,"Oslo, Norway",59.9133301,10.7389701,7.119682945,1851
277,"Muscat, Oman",23.5882019,58.3829448,28.80861768,1851
278,"Islamabad, Pakistan",33.6938118,73.0651511,19.99447263,1851
279,"Panama City, Panama",8.6671353550533,-80.8169594275597,9.751305224,1851
280,"Asunción, Paraguay",-25.2800459,-57.6343814,12.10793165,1851
281,"Lima, Peru",-12.0621065,-77.0365256,6.599933174,1851
282,"Manila, Philippines",14.5906346,120.9799964,11.25061988,1851
283,"Warsaw, Poland",52.2337172,21.0714322356365,16.27766859,1851
284,"Lisbon, Portugal",38.7077507,-9.1365919,10.58517434,1851
285,"Doha, Qatar",24.73677015,81.4466022001494,31.20800677,1851
286,"Bucharest, Romania",44.4361414,26.1027202,13.92605231,1851
287,"Moscow, Russia",55.7505412,37.6174782,23.18449101,1851
288,"Kigali, Rwanda",-1.8859597,30.1296751,15.11454692,1851
289,"Apia, Samoa",-13.8344639,-171.7649144,4.402042287,1851
290,"San Marino, San Marino",43.9458623,12.458306,11.66071603,1851
291,"São Tomé, São Tomé and Príncipe",0.3389242,6.7313031,14.17922499,1851
292,"Riyadh, Saudi Arabia",24.638916,46.7160104,59.65433885,1851
293,"Dakar, Senegal",14.693425,-17.447938,38.04431644,1851
294,"Belgrade, Serbia",44.8178131,20.4568974,7.324320329,1851
295,"Victoria, Seychelles",-36.5986096,144.6780052,7.671125191,1851
296,"Freetown, Sierra Leone",8.479004,-13.26795,22.06485661,1851
297,"Singapore, Singapore",1.357107,103.8194992,6.337887076,1851
298,"Bratislava, Slovakia",48.1516988,17.1093063,20.81753855,1851
299,"Ljubljana, Slovenia",46.0500268,14.5069289,10.47824472,1851
300,"Honiara, Solomon Islands",-9.43779755,159.962417478605,6.157446509,1851
301,"Mogadishu, Somalia",2.0349312,45.3419183,9.917024252,1851
302,"Pretoria, South Africa",-25.7459277,28.1879101,13.04388296,1851
303,"Seoul, South Korea",37.5666791,126.9782914,8.822224241,1851
304,"Juba, South Sudan",4.8459246,31.5959173,25.05611981,1851
305,"Madrid, Spain",40.4167047,-3.7035825,5.762748724,1851
306,"Colombo, Sri Lanka",6.9388614,79.8542005,8.387733628,1851
307,"Khartoum, Sudan",15.5635972,32.5349123,35.82344909,1851
308,"Paramaribo, Suriname",5.8247628,-55.1703941,16.1952961,1851
309,"Stockholm, Sweden",59.3251172,18.0710935,5.118265349,1851
310,"Bern, Switzerland",46.9484742,7.4521749,15.89314196,1851
311,"Damascus, Syria",33.5145227857709,36.2904335592578,11.82042728,1851
312,"Taipei, Taiwan",25.0375198,121.5636796,6.820972198,1851
313,"Dushanbe, Tajikistan",38.5856947,68.7603746751885,19.34425891,1851
314,"Dar es Salaam, Tanzania",-6.8160837,39.2803583,11.12282397,1851
315,"Bangkok, Thailand",13.7524938,100.4935089,10.52931041,1851
316,"Lomé, Togo",6.15803455,1.25168237324663,34.09070874,1851
317,"Nukuʻalofa, Tonga",-21.1343401,-175.201808,4.372980209,1851
318,"Tunis, Tunisia",36.8002068,10.1857757,12.80663012,1851
319,"Ankara, Turkey",39.7160439,32.7059948,6.993365587,1851
320,"Ashgabat, Turkmenistan",37.9404648,58.3823487,37.55034317,1851
321,"Kampala, Uganda",0.3177137,32.5813539,18.17175999,1851
322,"Kyiv, Ukraine",50.4500336,30.5241361,15.79978488,1851
323,"Abu Dhabi, UAE",24.4538352,54.3774014,22.28235884,1851
324,"London, United Kingdom",51.4893335,-0.144055084527687,31.7503324,1851
325,"Washington, D.C., USA",38.9240943816741,-77.0091011073296,17.01656944,1851
326,"Tashkent, Uzbekistan",41.3123363,69.2787079,23.31230792,1851
327,"Port Vila, Vanuatu",-17.7414972,168.3150163,6.68134057,1851
328,"Vatican City, Vatican City",41.903411,12.4528527,12.1351731,1851
329,"Caracas, Venezuela",10.5060934,-66.9146008,15.58276766,1851
330,"Hanoi, Vietnam",21.0283334,105.854041,8.590505729,1851
331,"Sana'a, Yemen",15.3538569,44.2058841,19.34306194,1851
332,"Lusaka, Zambia",-15.4163395,28.2818414,14.19430261,1851
333,"Harare, Zimbabwe",-17.8567035,31.0601584,12.9454714,1851
334,"Leeds, United Kingdom",53.7974185,-1.5437941,27.88966104,1851
335,"Exeter, United Kingdom",50.7256138,-3.5269209,17.01387398,1851
336,"Edinburgh, United Kingdom",55.9533456,-3.1883749,15.60677883,1851
337,"Los Angeles, USA",34.0536909,-118.242766,9.274181564,1851
338,"Nanjing, China",32.0438284,118.7788631,14.08545478,1851
339,"Shanghai, China",31.2312707,121.4700152,11.78345096,1851
340,"Chennai, India",13.0836939,80.270186,12.76142017,1851
341,"Ahmedabad, India",23.0215374,72.5800568,29.91410074,1851
342,"Fairbanks, USA",64.837845,-147.716675,22.46110851,1851
343,"Birmingham, UK",52.4796992,-1.9026911,24.84702088,1851
344,"São Paulo, Brazil",-23.5506507,-46.6333824,2.457452705,1851
345,"Singapore, Singapore.1",1.357107,103.8194992,6.544785151,1851
346,"Cape Town, South Africa",-33.928992,18.417396,3.919631033,1851
347,"Birmingham, United Kingdom",52.4796992,-1.9026911,24.84702088,1851
348,"Cardiff, United Kingdom",51.4816546,-3.1791934,37.84943703,1851
349,"Belfast, United Kingdom",54.596391,-5.9301829,11.83843421,1851
350,"Reykjavík, Iceland",64.145981,-21.9422367,4.449791384,1851
351,"Yakutsk, Russia",62.0274078,129.7319787,4.753669613,1851
352,"Kabul, Afghanistan",34.5260109,69.1776838,16.11890301,1852
353,"Tirana, Albania",41.3281482,19.8184435,10.59891015,1852
354,"Algiers, Algeria",36.7729309,3.0588291,6.504152733,1852
355,"Luanda, Angola",-8.8272699,13.2439512,17.95206966,1852
356,"Buenos Aires, Argentina",-34.6073387,-58.4432852,5.791609228,1852
357,"Yerevan, Armenia",40.1777112,44.5126233,15.06914192,1852
358,"Sydney, Australia",-33.8698439,151.2082848,3.336211616,1852
359,"Canberra, Australia",-35.2975906,149.1012676,4.328398649,1852
360,"Baku, Azerbaijan",40.3755885,49.8328009,20.73783764,1852
361,"Manama, Bahrain",-8.79691,125.45785,26.54519318,1852
362,"Dhaka, Bangladesh",23.7644025,90.389015,31.81262773,1852
363,"Minsk, Belarus",53.9024716,27.5618225,14.2791652,1852
364,"Brussels, Belgium",50.8550018,4.35123337611662,17.55082106,1852
365,"Cotonou, Benin",6.3676953,2.4252507,22.78308867,1852
366,"Thimphu, Bhutan",27.4713546,89.6336729,11.70454475,1852
367,"La Paz, Bolivia",-16.4955455,-68.1336229,12.60670812,1852
368,"Gaborone, Botswana",-24.6581357,25.9088474,8.484910727,1852
369,"Brasília, Brazil",-10.3333333,-53.2,4.241963654,1852
370,"Sofia, Bulgaria",-15.2538402,48.2562163,13.62567286,1852
371,"Ouagadougou, Burkina Faso",12.3681873,-1.5270944,44.37988743,1852
372,"Bujumbura, Burundi",-3.3638125,29.3675028,16.33259665,1852
373,"Phnom Penh, Cambodia",11.568271,104.9224426,27.79275049,1852
374,"Yaoundé, Cameroon",3.8689867,11.5213344,35.95696121,1852
375,"Ottawa, Canada",45.4110870626566,-75.7083256476122,6.782060794,1852
376,"Bangui, CAR",4.3635118,18.5835913,35.51958241,1852
377,"N'Djaména, Chad",12.1191543,15.0502758,48.67406901,1852
378,"Santiago, Chile",-33.4377756,-70.6504502,4.233285343,1852
379,"Hangzhou, China",30.2489634,120.2052342,14.40287564,1852
380,"Beijing, China",40.190632,116.412144,11.60421099,1852
381,"Bogotá, Colombia",4.6533816,-74.0836333,7.353165615,1852
382,"Brazzaville, Congo",-4.2694407,15.2712256,31.96444082,1852
383,"San José, Costa Rica",9.9325427,-84.0795782,12.88542287,1852
384,"Abidjan, Côte d'Ivoire",5.320357,-4.016107,16.2487203,1852
385,"Zagreb, Croatia",45.8130967,15.9772795,12.32730985,1852
386,"Havana, Cuba",23.135305,-82.3589631,5.417667744,1852
387,"Nicosia, Cyprus",35.1746503,33.3638783,10.34581575,1852
388,"Prague, Czechia",50.0874654,14.4212535,18.11568473,1852
389,"Kinshasa, DRC",-4.3217055,15.3125974,31.45281311,1852
390,"Copenhagen, Denmark",55.6867243,12.5700724,10.58775521,1852
391,"Djibouti, Djibouti",11.8145966,42.8453061,29.87189952,1852
392,"Cairo, Egypt",30.0443879,31.2357257,18.55228298,1852
393,"San Salvador, El Salvador",13.6989939,-89.1914249,11.5015222,1852
394,"Malabo, Equatorial Guinea",3.741877,8.7740663,30.61156346,1852
395,"Asmara, Eritrea",15.3389667,38.9326763,16.60284033,1852
396,"Addis Ababa, Ethiopia",9.0358287,38.7524127,5.097830865,1852
397,"Suva, Fiji",-18.1415884,178.4421662,6.343122193,1852
398,"Paris, France",48.8534951,2.3483915,16.79308398,1852
399,"Libreville, Gabon",0.4086518,9.4418849,17.41124077,1852
400,"Tbilisi, Georgia",41.6934591,44.8014495,11.75390746,1852
401,"Berlin, Germany",52.510885,13.3989367,17.37099288,1852
402,"Accra, Ghana",5.5571096,-0.2012376,22.30090483,1852
403,"Athens, Greece",37.9887791133275,23.7191086388293,10.00533409,1852
404,"Guatemala City, Guatemala",14.6416142,-90.5132836,9.655673749,1852
405,"Conakry, Guinea",9.5170602,-13.6998434,27.85395884,1852
406,"Bissau, Guinea-Bissau",11.87018055,-15.6077045647727,31.47734755,1852
407,"Port-au-Prince, Haiti",18.547327,-72.3395928,9.431393658,1852
408,"Tegucigalpa, Honduras",14.1057433,-87.2040052,18.25132312,1852
409,"Budapest, Hungary",47.48138955,19.1460941269125,26.14856877,1852
410,"Delhi, India",28.6273928,77.1716954,55.02200996,1852
411,"Jakarta, Indonesia",-6.175247,106.8270488,7.444793388,1852
412,"Tehran, Iran",35.6892523,51.3896004,19.2740127,1852
413,"Baghdad, Iraq",33.3061701,44.3872213,28.12942581,1852
414,"Dublin, Ireland",53.3493795,-6.2605593,10.00431917,1852
415,"Jerusalem, Israel",31.7788242,35.2257626,9.904518774,1852
416,"Rome, Italy",41.8933203,12.4829321,13.79690006,1852
417,"Tokyo, Japan",35.6821936,139.762221,7.011967741,1852
418,"Amman, Jordan",31.9515694,35.9239625,13.30683442,1852
419,"Temirtau, Kazakhstan",50.0587825,72.9535681,10.14309915,1852
420,"Astana, Kazakhstan",51.1282205,71.4306682,8.769821403,1852
421,"Nairobi, Kenya",-1.30261485,36.8288420181373,8.60034825,1852
422,"Kuwait City, Kuwait",29.3796532,47.9734174,37.36514542,1852
423,"Bishkek, Kyrgyzstan",42.8777895,74.6066926,15.59113875,1852
424,"Vientiane, Laos",17.9640988,102.6133707,32.61436304,1852
425,"Riga, Latvia",56.9493977,24.1051846,17.2533305,1852
426,"Monrovia, Liberia",6.328034,-10.797788,16.16074572,1852
427,"Tripoli, Libya",32.896672,13.1777923,17.5616887,1852
428,"Vilnius, Lithuania",54.6870458,25.2829111,11.02938693,1852
429,"Luxembourg, Luxembourg",49.6112768,6.129799,14.8456139,1852
430,"Antananarivo, Madagascar",-18.9100122,47.5255809,11.38501138,1852
431,"Lilongwe, Malawi",-13.9875107,33.768144,12.00412173,1852
432,"Kuala Lumpur, Malaysia",3.1516964,101.6942371,4.903711081,1852
433,"Bamako, Mali",12.61326555,-7.9847391362413,31.182128,1852
434,"Valletta, Malta",35.8989818,14.5136759,10.08781145,1852
435,"Nouakchott, Mauritania",18.0618918,-15.9311481578329,63.85132761,1852
436,"Port Louis, Mauritius",-20.1624522,57.5028044,13.56250486,1852
437,"Mexico City, Mexico",19.4326296,-99.1331785,7.230040253,1852
438,"Chisinau, Moldova",47.0245117,28.8322923,15.13120638,1852
439,"Ulaanbaatar, Mongolia",47.94097405,106.917963752256,30.10982595,1852
440,"Podgorica, Montenegro",42.4415238,19.2621081,11.61566155,1852
441,"Rabat, Morocco",34.02236,-6.8340222,7.652395814,1852
442,"Maputo, Mozambique",-25.966213,32.56745,9.544173777,1852
443,"Windhoek, Namibia",-22.5776104,17.0772739,10.099614,1852
444,"Kathmandu, Nepal",27.708317,85.3205817,18.51366054,1852
445,"Amsterdam, Netherlands",52.3730796,4.8924534,15.04133289,1852
446,"Wellington, New Zealand",-41.2887953,174.7772114,5.222020597,1852
447,"Managua, Nicaragua",12.1544035,-86.2737642,12.21883691,1852
448,"Niamey, Niger",13.524834,2.109823,44.45891833,1852
449,"Abuja, Nigeria",9.0643305,7.4892974,41.36319713,1852
450,"Pyongyang, North Korea",39.0167979,125.7473609,14.6600499,1852
451,"Skopje, North Macedonia",41.9961816,21.4319213,11.5573006,1852
452,"Oslo, Norway",59.9133301,10.7389701,7.133988553,1852
453,"Muscat, Oman",23.5882019,58.3829448,26.29629845,1852
454,"Islamabad, Pakistan",33.6938118,73.0651511,19.19826719,1852
455,"Panama City, Panama",8.6671353550533,-80.8169594275597,10.17600235,1852
456,"Asunción, Paraguay",-25.2800459,-57.6343814,12.09761657,1852
457,"Lima, Peru",-12.0621065,-77.0365256,6.521821497,1852
458,"Manila, Philippines",14.5906346,120.9799964,12.10708706,1852
459,"Warsaw, Poland",52.2337172,21.0714322356365,17.03305193,1852
460,"Lisbon, Portugal",38.7077507,-9.1365919,9.989827203,1852
461,"Doha, Qatar",24.73677015,81.4466022001494,30.21775848,1852
462,"Bucharest, Romania",44.4361414,26.1027202,14.01044245,1852
463,"Moscow, Russia",55.7505412,37.6174782,23.92287971,1852
464,"Kigali, Rwanda",-1.8859597,30.1296751,14.80544154,1852
465,"Apia, Samoa",-13.8344639,-171.7649144,4.603612076,1852
466,"San Marino, San Marino",43.9458623,12.458306,12.5730045,1852
467,"São Tomé, São Tomé and Príncipe",0.3389242,6.7313031,12.30267907,1852
468,"Riyadh, Saudi Arabia",24.638916,46.7160104,61.33099892,1852
469,"Dakar, Senegal",14.693425,-17.447938,40.10975784,1852
470,"Belgrade, Serbia",44.8178131,20.4568974,7.643767994,1852
471,"Victoria, Seychelles",-36.5986096,144.6780052,7.790495741,1852
472,"Freetown, Sierra Leone",8.479004,-13.26795,21.64160065,1852
473,"Singapore, Singapore",1.357107,103.8194992,6.730290711,1852
474,"Bratislava, Slovakia",48.1516988,17.1093063,20.44087831,1852
475,"Ljubljana, Slovenia",46.0500268,14.5069289,11.0959318,1852
476,"Honiara, Solomon Islands",-9.43779755,159.962417478605,7.231708653,1852
477,"Mogadishu, Somalia",2.0349312,45.3419183,9.489165265,1852
478,"Pretoria, South Africa",-25.7459277,28.1879101,13.06014675,1852
479,"Seoul, South Korea",37.5666791,126.9782914,8.555906328,1852
480,"Juba, South Sudan",4.8459246,31.5959173,24.33678697,1852
481,"Madrid, Spain",40.4167047,-3.7035825,5.48537753,1852
482,"Colombo, Sri Lanka",6.9388614,79.8542005,7.907522316,1852
483,"Khartoum, Sudan",15.5635972,32.5349123,36.02773799,1852
484,"Paramaribo, Suriname",5.8247628,-55.1703941,16.19995815,1852
485,"Stockholm, Sweden",59.3251172,18.0710935,5.075415259,1852
486,"Bern, Switzerland",46.9484742,7.4521749,14.96590293,1852
487,"Damascus, Syria",33.5145227857709,36.2904335592578,12.25486589,1852
488,"Taipei, Taiwan",25.0375198,121.5636796,6.935440877,1852
489,"Dushanbe, Tajikistan",38.5856947,68.7603746751885,16.030817,1852
490,"Dar es Salaam, Tanzania",-6.8160837,39.2803583,10.9907996,1852
491,"Bangkok, Thailand",13.7524938,100.4935089,11.12387022,1852
492,"Lomé, Togo",6.15803455,1.25168237324663,30.57485584,1852
493,"Nukuʻalofa, Tonga",-21.1343401,-175.201808,4.710101975,1852
494,"Tunis, Tunisia",36.8002068,10.1857757,13.88164866,1852
495,"Ankara, Turkey",39.7160439,32.7059948,7.849568125,1852
496,"Ashgabat, Turkmenistan",37.9404648,58.3823487,30.5225466,1852
497,"Kampala, Uganda",0.3177137,32.5813539,16.63413721,1852
498,"Kyiv, Ukraine",50.4500336,30.5241361,16.6387857,1852
499,"Abu Dhabi, UAE",24.4538352,54.3774014,21.01355905,1852
500,"London, United Kingdom",51.4893335,-0.144055084527687,30.45452637,1852
501,"Washington, D.C., USA",38.9240943816741,-77.0091011073296,16.91727741,1852
502,"Tashkent, Uzbekistan",41.3123363,69.2787079,19.1468099,1852
503,"Port Vila, Vanuatu",-17.7414972,168.3150163,6.990278654,1852
504,"Vatican City, Vatican City",41.903411,12.4528527,13.3980104,1852
505,"Caracas, Venezuela",10.5060934,-66.9146008,14.95583355,1852
506,"Hanoi, Vietnam",21.0283334,105.854041,9.070880428,1852
507,"Sana'a, Yemen",15.3538569,44.2058841,17.73517983,1852
508,"Lusaka, Zambia",-15.4163395,28.2818414,15.24013414,1852
509,"Harare, Zimbabwe",-17.8567035,31.0601584,13.81444042,1852
510,"Leeds, United Kingdom",53.7974185,-1.5437941,27.97426769,1852
511,"Exeter, United Kingdom",50.7256138,-3.5269209,17.16866436,1852
512,"Edinburgh, United Kingdom",55.9533456,-3.1883749,16.07604797,1852
513,"Los Angeles, USA",34.0536909,-118.242766,9.438682198,1852
514,"Nanjing, China",32.0438284,118.7788631,14.06082131,1852
515,"Shanghai, China",31.2312707,121.4700152,11.69772409,1852
516,"Chennai, India",13.0836939,80.270186,12.47260961,1852
517,"Ahmedabad, India",23.0215374,72.5800568,32.75948335,1852
518,"Fairbanks, USA",64.837845,-147.716675,23.7812263,1852
519,"Birmingham, UK",52.4796992,-1.9026911,25.28060071,1852
520,"São Paulo, Brazil",-23.5506507,-46.6333824,2.54746724,1852
521,"Singapore, Singapore.1",1.357107,103.8194992,6.952268834,1852
522,"Cape Town, South Africa",-33.928992,18.417396,3.810320076,1852
523,"Birmingham, United Kingdom",52.4796992,-1.9026911,25.28060071,1852
524,"Cardiff, United Kingdom",51.4816546,-3.1791934,38.26850759,1852
525,"Belfast, United Kingdom",54.596391,-5.9301829,12.1165155,1852
526,"Reykjavík, Iceland",64.145981,-21.9422367,4.384574308,1852
527,"Yakutsk, Russia",62.0274078,129.7319787,4.606749982,1852
528,"Kabul, Afghanistan",34.5260109,69.1776838,16.6155582,1853
529,"Tirana, Albania",41.3281482,19.8184435,10.85061412,1853
530,"Algiers, Algeria",36.7729309,3.0588291,6.097177098,1853
531,"Luanda, Angola",-8.8272699,13.2439512,17.79726474,1853
532,"Buenos Aires, Argentina",-34.6073387,-58.4432852,5.493033263,1853
533,"Yerevan, Armenia",40.1777112,44.5126233,14.46945603,1853
534,"Sydney, Australia",-33.8698439,151.2082848,3.322771768,1853
535,"Canberra, Australia",-35.2975906,149.1012676,4.170104649,1853
536,"Baku, Azerbaijan",40.3755885,49.8328009,19.68083172,1853
537,"Manama, Bahrain",-8.79691,125.45785,26.55150905,1853
538,"Dhaka, Bangladesh",23.7644025,90.389015,29.43202968,1853
539,"Minsk, Belarus",53.9024716,27.5618225,13.93306223,1853
540,"Brussels, Belgium",50.8550018,4.35123337611662,17.89856998,1853
541,"Cotonou, Benin",6.3676953,2.4252507,21.585293,1853
542,"Thimphu, Bhutan",27.4713546,89.6336729,10.88741302,1853
543,"La Paz, Bolivia",-16.4955455,-68.1336229,12.4627491,1853
544,"Gaborone, Botswana",-24.6581357,25.9088474,8.493184631,1853
545,"Brasília, Brazil",-10.3333333,-53.2,4.468300439,1853
546,"Sofia, Bulgaria",-15.2538402,48.2562163,14.25463724,1853
547,"Ouagadougou, Burkina Faso",12.3681873,-1.5270944,38.65452822,1853
548,"Bujumbura, Burundi",-3.3638125,29.3675028,16.00180121,1853
549,"Phnom Penh, Cambodia",11.568271,104.9224426,27.51677035,1853
550,"Yaoundé, Cameroon",3.8689867,11.5213344,33.37830348,1853
551,"Ottawa, Canada",45.4110870626566,-75.7083256476122,6.79149398,1853
552,"Bangui, CAR",4.3635118,18.5835913,33.04640846,1853
553,"N'Djaména, Chad",12.1191543,15.0502758,42.91722667,1853
554,"Santiago, Chile",-33.4377756,-70.6504502,4.038822909,1853
555,"Hangzhou, China",30.2489634,120.2052342,14.52184782,1853
556,"Beijing, China",40.190632,116.412144,12.03267155,1853
557,"Bogotá, Colombia",4.6533816,-74.0836333,7.869423658,1853
558,"Brazzaville, Congo",-4.2694407,15.2712256,33.21725175,1853
559,"San José, Costa Rica",9.9325427,-84.0795782,13.34659305,1853
560,"Abidjan, Côte d'Ivoire",5.320357,-4.016107,14.98447788,1853
561,"Zagreb, Croatia",45.8130967,15.9772795,12.38240354,1853
562,"Havana, Cuba",23.135305,-82.3589631,5.564899391,1853
563,"Nicosia, Cyprus",35.1746503,33.3638783,10.22380042,1853
564,"Prague, Czechia",50.0874654,14.4212535,18.13928565,1853
565,"Kinshasa, DRC",-4.3217055,15.3125974,32.72987748,1853
566,"Copenhagen, Denmark",55.6867243,12.5700724,10.09446061,1853
567,"Djibouti, Djibouti",11.8145966,42.8453061,29.18039311,1853
568,"Cairo, Egypt",30.0443879,31.2357257,18.01255276,1853
569,"San Salvador, El Salvador",13.6989939,-89.1914249,13.23870081,1853
570,"Malabo, Equatorial Guinea",3.741877,8.7740663,28.18642051,1853
571,"Asmara, Eritrea",15.3389667,38.9326763,17.46523009,1853
572,"Addis Ababa, Ethiopia",9.0358287,38.7524127,5.044032912,1853
573,"Suva, Fiji",-18.1415884,178.4421662,6.529643289,1853
574,"Paris, France",48.8534951,2.3483915,17.15225781,1853
575,"Libreville, Gabon",0.4086518,9.4418849,16.79490893,1853
576,"Tbilisi, Georgia",41.6934591,44.8014495,11.3615436,1853
577,"Berlin, Germany",52.510885,13.3989367,17.14218399,1853
578,"Accra, Ghana",5.5571096,-0.2012376,20.98909702,1853
579,"Athens, Greece",37.9887791133275,23.7191086388293,10.11279946,1853
580,"Guatemala City, Guatemala",14.6416142,-90.5132836,11.01909527,1853
581,"Conakry, Guinea",9.5170602,-13.6998434,23.2919004,1853
582,"Bissau, Guinea-Bissau",11.87018055,-15.6077045647727,26.96846057,1853
583,"Port-au-Prince, Haiti",18.547327,-72.3395928,9.619254076,1853
584,"Tegucigalpa, Honduras",14.1057433,-87.2040052,20.81935785,1853
585,"Budapest, Hungary",47.48138955,19.1460941269125,26.88164513,1853
586,"Delhi, India",28.6273928,77.1716954,51.74327965,1853
587,"Jakarta, Indonesia",-6.175247,106.8270488,7.413361177,1853
588,"Tehran, Iran",35.6892523,51.3896004,18.95710791,1853
589,"Baghdad, Iraq",33.3061701,44.3872213,29.11279749,1853
590,"Dublin, Ireland",53.3493795,-6.2605593,9.951763342,1853
591,"Jerusalem, Israel",31.7788242,35.2257626,9.881576087,1853
592,"Rome, Italy",41.8933203,12.4829321,13.32188631,1853
593,"Tokyo, Japan",35.6821936,139.762221,7.237675095,1853
594,"Amman, Jordan",31.9515694,35.9239625,13.4604477,1853
595,"Temirtau, Kazakhstan",50.0587825,72.9535681,11.45502954,1853
596,"Astana, Kazakhstan",51.1282205,71.4306682,9.517761437,1853
597,"Nairobi, Kenya",-1.30261485,36.8288420181373,8.494225727,1853
598,"Kuwait City, Kuwait",29.3796532,47.9734174,35.57052427,1853
599,"Bishkek, Kyrgyzstan",42.8777895,74.6066926,16.17033749,1853
600,"Vientiane, Laos",17.9640988,102.6133707,31.36264018,1853
601,"Riga, Latvia",56.9493977,24.1051846,16.29310555,1853
602,"Monrovia, Liberia",6.328034,-10.797788,14.6260074,1853
603,"Tripoli, Libya",32.896672,13.1777923,17.43667331,1853
604,"Vilnius, Lithuania",54.6870458,25.2829111,10.49504972,1853
605,"Luxembourg, Luxembourg",49.6112768,6.129799,15.37069744,1853
606,"Antananarivo, Madagascar",-18.9100122,47.5255809,11.61056572,1853
607,"Lilongwe, Malawi",-13.9875107,33.768144,12.49727675,1853
608,"Kuala Lumpur, Malaysia",3.1516964,101.6942371,4.870413934,1853
609,"Bamako, Mali",12.61326555,-7.9847391362413,27.26877482,1853
610,"Valletta, Malta",35.8989818,14.5136759,10.31999636,1853
611,"Nouakchott, Mauritania",18.0618918,-15.9311481578329,52.03120866,1853
612,"Port Louis, Mauritius",-20.1624522,57.5028044,12.92041314,1853
613,"Mexico City, Mexico",19.4326296,-99.1331785,8.10451608,1853
614,"Chisinau, Moldova",47.0245117,28.8322923,15.35421328,1853
615,"Ulaanbaatar, Mongolia",47.94097405,106.917963752256,28.95596279,1853
616,"Podgorica, Montenegro",42.4415238,19.2621081,11.81688806,1853
617,"Rabat, Morocco",34.02236,-6.8340222,8.099581776,1853
618,"Maputo, Mozambique",-25.966213,32.56745,9.445112454,1853
619,"Windhoek, Namibia",-22.5776104,17.0772739,10.37013737,1853
620,"Kathmandu, Nepal",27.708317,85.3205817,16.76977984,1853
621,"Amsterdam, Netherlands",52.3730796,4.8924534,14.91527331,1853
622,"Wellington, New Zealand",-41.2887953,174.7772114,5.3828531,1853
623,"Managua, Nicaragua",12.1544035,-86.2737642,13.34183702,1853
624,"Niamey, Niger",13.524834,2.109823,39.55013942,1853
625,"Abuja, Nigeria",9.0643305,7.4892974,36.81392169,1853
626,"Pyongyang, North Korea",39.0167979,125.7473609,14.97372014,1853
627,"Skopje, North Macedonia",41.9961816,21.4319213,12.03669184,1853
628,"Oslo, Norway",59.9133301,10.7389701,6.84423438,1853
629,"Muscat, Oman",23.5882019,58.3829448,25.99763295,1853
630,"Islamabad, Pakistan",33.6938118,73.0651511,18.29099358,1853
631,"Panama City, Panama",8.6671353550533,-80.8169594275597,10.00445533,1853
632,"Asunción, Paraguay",-25.2800459,-57.6343814,12.29741231,1853
633,"Lima, Peru",-12.0621065,-77.0365256,6.587157443,1853
634,"Manila, Philippines",14.5906346,120.9799964,11.86693459,1853
635,"Warsaw, Poland",52.2337172,21.0714322356365,17.03728302,1853
636,"Lisbon, Portugal",38.7077507,-9.1365919,10.16609659,1853
637,"Doha, Qatar",24.73677015,81.4466022001494,30.76709369,1853
638,"Bucharest, Romania",44.4361414,26.1027202,14.62160967,1853
639,"Moscow, Russia",55.7505412,37.6174782,22.59939158,1853
640,"Kigali, Rwanda",-1.8859597,30.1296751,14.11776801,1853
641,"Apia, Samoa",-13.8344639,-171.7649144,5.059783517,1853
642,"San Marino, San Marino",43.9458623,12.458306,12.38161521,1853
643,"São Tomé, São Tomé and Príncipe",0.3389242,6.7313031,12.0499952,1853
644,"Riyadh, Saudi Arabia",24.638916,46.7160104,61.67402485,1853
645,"Dakar, Senegal",14.693425,-17.447938,34.07533784,1853
646,"Belgrade, Serbia",44.8178131,20.4568974,7.812868293,1853
647,"Victoria, Seychelles",-36.5986096,144.6780052,7.378029972,1853
648,"Freetown, Sierra Leone",8.479004,-13.26795,18.7433441,1853
649,"Singapore, Singapore",1.357107,103.8194992,6.667369741,1853
650,"Bratislava, Slovakia",48.1516988,17.1093063,20.88823856,1853
651,"Ljubljana, Slovenia",46.0500268,14.5069289,11.11510295,1853
652,"Honiara, Solomon Islands",-9.43779755,159.962417478605,7.251007509,1853
653,"Mogadishu, Somalia",2.0349312,45.3419183,9.242478112,1853
654,"Pretoria, South Africa",-25.7459277,28.1879101,12.62409518,1853
655,"Seoul, South Korea",37.5666791,126.9782914,8.701229132,1853
656,"Juba, South Sudan",4.8459246,31.5959173,24.53857229,1853
657,"Madrid, Spain",40.4167047,-3.7035825,5.366937515,1853
658,"Colombo, Sri Lanka",6.9388614,79.8542005,7.944222627,1853
659,"Khartoum, Sudan",15.5635972,32.5349123,33.62350596,1853
660,"Paramaribo, Suriname",5.8247628,-55.1703941,15.07898281,1853
661,"Stockholm, Sweden",59.3251172,18.0710935,5.047149488,1853
662,"Bern, Switzerland",46.9484742,7.4521749,15.38679112,1853
663,"Damascus, Syria",33.5145227857709,36.2904335592578,12.14369826,1853
664,"Taipei, Taiwan",25.0375198,121.5636796,7.210075935,1853
665,"Dushanbe, Tajikistan",38.5856947,68.7603746751885,17.88206233,1853
666,"Dar es Salaam, Tanzania",-6.8160837,39.2803583,10.6442289,1853
667,"Bangkok, Thailand",13.7524938,100.4935089,10.70758174,1853
668,"Lomé, Togo",6.15803455,1.25168237324663,29.64330525,1853
669,"Nukuʻalofa, Tonga",-21.1343401,-175.201808,4.781393527,1853
670,"Tunis, Tunisia",36.8002068,10.1857757,13.27940228,1853
671,"Ankara, Turkey",39.7160439,32.7059948,7.507385722,1853
672,"Ashgabat, Turkmenistan",37.9404648,58.3823487,30.9455789,1853
673,"Kampala, Uganda",0.3177137,32.5813539,16.57333786,1853
674,"Kyiv, Ukraine",50.4500336,30.5241361,16.64304017,1853
675,"Abu Dhabi, UAE",24.4538352,54.3774014,21.21039303,1853
676,"London, United Kingdom",51.4893335,-0.144055084527687,31.86685628,1853
677,"Washington, D.C., USA",38.9240943816741,-77.0091011073296,16.23137331,1853
678,"Tashkent, Uzbekistan",41.3123363,69.2787079,20.27282143,1853
679,"Port Vila, Vanuatu",-17.7414972,168.3150163,7.010699195,1853
680,"Vatican City, Vatican City",41.903411,12.4528527,12.93781235,1853
681,"Caracas, Venezuela",10.5060934,-66.9146008,15.03436871,1853
682,"Hanoi, Vietnam",21.0283334,105.854041,9.093195244,1853
683,"Sana'a, Yemen",15.3538569,44.2058841,17.92763262,1853
684,"Lusaka, Zambia",-15.4163395,28.2818414,14.94501426,1853
685,"Harare, Zimbabwe",-17.8567035,31.0601584,13.65684907,1853
686,"Leeds, United Kingdom",53.7974185,-1.5437941,29.11900963,1853
687,"Exeter, United Kingdom",50.7256138,-3.5269209,17.55158066,1853
688,"Edinburgh, United Kingdom",55.9533456,-3.1883749,16.40220992,1853
689,"Los Angeles, USA",34.0536909,-118.242766,9.740121325,1853
690,"Nanjing, China",32.0438284,118.7788631,14.18378766,1853
691,"Shanghai, China",31.2312707,121.4700152,11.90091373,1853
692,"Chennai, India",13.0836939,80.270186,12.20948112,1853
693,"Ahmedabad, India",23.0215374,72.5800568,30.72879353,1853
694,"Fairbanks, USA",64.837845,-147.716675,22.56743969,1853
695,"Birmingham, UK",52.4796992,-1.9026911,26.22827355,1853
696,"São Paulo, Brazil",-23.5506507,-46.6333824,2.561335116,1853
697,"Singapore, Singapore.1",1.357107,103.8194992,6.890016299,1853
698,"Cape Town, South Africa",-33.928992,18.417396,3.900743848,1853
699,"Birmingham, United Kingdom",52.4796992,-1.9026911,26.22827355,1853
700,"Cardiff, United Kingdom",51.4816546,-3.1791934,39.78111258,1853
701,"Belfast, United Kingdom",54.596391,-5.9301829,12.08335432,1853
702,"Reykjavík, Iceland",64.145981,-21.9422367,3.721442086,1853
703,"Yakutsk, Russia",62.0274078,129.7319787,4.71098871,1853
704,"Kabul, Afghanistan",34.5260109,69.1776838,17.00643491,1854
705,"Tirana, Albania",41.3281482,19.8184435,10.42442526,1854
706,"Algiers, Algeria",36.7729309,3.0588291,6.182560662,1854
707,"Luanda, Angola",-8.8272699,13.2439512,20.58372092,1854
708,"Buenos Aires, Argentina",-34.6073387,-58.4432852,5.674698703,1854
709,"Yerevan, Armenia",40.1777112,44.5126233,14.38640449,1854
710,"Sydney, Australia",-33.8698439,151.2082848,2.837990236,1854
711,"Canberra, Australia",-35.2975906,149.1012676,3.536480455,1854
712,"Baku, Azerbaijan",40.3755885,49.8328009,19.83227352,1854
713,"Manama, Bahrain",-8.79691,125.45785,26.6972954,1854
714,"Dhaka, Bangladesh",23.7644025,90.389015,29.35544611,1854
715,"Minsk, Belarus",53.9024716,27.5618225,13.37320075,1854
716,"Brussels, Belgium",50.8550018,4.35123337611662,19.63992491,1854
717,"Cotonou, Benin",6.3676953,2.4252507,25.2419912,1854
718,"Thimphu, Bhutan",27.4713546,89.6336729,10.01797577,1854
719,"La Paz, Bolivia",-16.4955455,-68.1336229,12.87665918,1854
720,"Gaborone, Botswana",-24.6581357,25.9088474,8.98772603,1854
721,"Brasília, Brazil",-10.3333333,-53.2,4.419421469,1854
722,"Sofia, Bulgaria",-15.2538402,48.2562163,13.92993205,1854
723,"Ouagadougou, Burkina Faso",12.3681873,-1.5270944,40.87504505,1854
724,"Bujumbura, Burundi",-3.3638125,29.3675028,17.59693072,1854
725,"Phnom Penh, Cambodia",11.568271,104.9224426,23.58491321,1854
726,"Yaoundé, Cameroon",3.8689867,11.5213344,39.11067177,1854
727,"Ottawa, Canada",45.4110870626566,-75.7083256476122,7.01641259,1854
728,"Bangui, CAR",4.3635118,18.5835913,34.89960217,1854
729,"N'Djaména, Chad",12.1191543,15.0502758,46.60663671,1854
730,"Santiago, Chile",-33.4377756,-70.6504502,4.236709288,1854
731,"Hangzhou, China",30.2489634,120.2052342,14.77960482,1854
732,"Beijing, China",40.190632,116.412144,11.84894084,1854
733,"Bogotá, Colombia",4.6533816,-74.0836333,7.575691645,1854
734,"Brazzaville, Congo",-4.2694407,15.2712256,37.54886968,1854
735,"San José, Costa Rica",9.9325427,-84.0795782,13.29499803,1854
736,"Abidjan, Côte d'Ivoire",5.320357,-4.016107,18.42617753,1854
737,"Zagreb, Croatia",45.8130967,15.9772795,11.85349055,1854
738,"Havana, Cuba",23.135305,-82.3589631,5.779837172,1854
739,"Nicosia, Cyprus",35.1746503,33.3638783,10.57561669,1854
740,"Prague, Czechia",50.0874654,14.4212535,18.85900596,1854
741,"Kinshasa, DRC",-4.3217055,15.3125974,36.98441587,1854
742,"Copenhagen, Denmark",55.6867243,12.5700724,9.913257662,1854
743,"Djibouti, Djibouti",11.8145966,42.8453061,28.75225981,1854
744,"Cairo, Egypt",30.0443879,31.2357257,18.68083033,1854
745,"San Salvador, El Salvador",13.6989939,-89.1914249,12.77971977,1854
746,"Malabo, Equatorial Guinea",3.741877,8.7740663,35.64439777,1854
747,"Asmara, Eritrea",15.3389667,38.9326763,19.17089335,1854
748,"Addis Ababa, Ethiopia",9.0358287,38.7524127,5.097646923,1854
749,"Suva, Fiji",-18.1415884,178.4421662,6.719615723,1854
750,"Paris, France",48.8534951,2.3483915,18.91360991,1854
751,"Libreville, Gabon",0.4086518,9.4418849,19.78635454,1854
752,"Tbilisi, Georgia",41.6934591,44.8014495,11.22043429,1854
753,"Berlin, Germany",52.510885,13.3989367,18.00189967,1854
754,"Accra, Ghana",5.5571096,-0.2012376,25.12200441,1854
755,"Athens, Greece",37.9887791133275,23.7191086388293,10.13592941,1854
756,"Guatemala City, Guatemala",14.6416142,-90.5132836,10.81445628,1854
757,"Conakry, Guinea",9.5170602,-13.6998434,25.35641604,1854
758,"Bissau, Guinea-Bissau",11.87018055,-15.6077045647727,28.166994,1854
759,"Port-au-Prince, Haiti",18.547327,-72.3395928,9.76247124,1854
760,"Tegucigalpa, Honduras",14.1057433,-87.2040052,20.73431424,1854
761,"Budapest, Hungary",47.48138955,19.1460941269125,27.04346423,1854
762,"Delhi, India",28.6273928,77.1716954,48.42428732,1854
763,"Jakarta, Indonesia",-6.175247,106.8270488,7.127780646,1854
764,"Tehran, Iran",35.6892523,51.3896004,18.32810034,1854
765,"Baghdad, Iraq",33.3061701,44.3872213,27.9037647,1854
766,"Dublin, Ireland",53.3493795,-6.2605593,9.559328924,1854
767,"Jerusalem, Israel",31.7788242,35.2257626,9.99719617,1854
768,"Rome, Italy",41.8933203,12.4829321,12.16375581,1854
769,"Tokyo, Japan",35.6821936,139.762221,7.107756556,1854
770,"Amman, Jordan",31.9515694,35.9239625,13.43754235,1854
771,"Temirtau, Kazakhstan",50.0587825,72.9535681,10.23507225,1854
772,"Astana, Kazakhstan",51.1282205,71.4306682,8.818948173,1854
773,"Nairobi, Kenya",-1.30261485,36.8288420181373,8.548628355,1854
774,"Kuwait City, Kuwait",29.3796532,47.9734174,36.22175906,1854
775,"Bishkek, Kyrgyzstan",42.8777895,74.6066926,16.52353088,1854
776,"Vientiane, Laos",17.9640988,102.6133707,28.06959669,1854
777,"Riga, Latvia",56.9493977,24.1051846,15.58486599,1854
778,"Monrovia, Liberia",6.328034,-10.797788,15.80051528,1854
779,"Tripoli, Libya",32.896672,13.1777923,17.04367519,1854
780,"Vilnius, Lithuania",54.6870458,25.2829111,10.16776601,1854
781,"Luxembourg, Luxembourg",49.6112768,6.129799,16.54409988,1854
782,"Antananarivo, Madagascar",-18.9100122,47.5255809,11.85467926,1854
783,"Lilongwe, Malawi",-13.9875107,33.768144,12.91390482,1854
784,"Kuala Lumpur, Malaysia",3.1516964,101.6942371,4.976902456,1854
785,"Bamako, Mali",12.61326555,-7.9847391362413,28.816866,1854
786,"Valletta, Malta",35.8989818,14.5136759,9.8621876,1854
787,"Nouakchott, Mauritania",18.0618918,-15.9311481578329,55.14616525,1854
788,"Port Louis, Mauritius",-20.1624522,57.5028044,13.83384173,1854
789,"Mexico City, Mexico",19.4326296,-99.1331785,8.485331995,1854
790,"Chisinau, Moldova",47.0245117,28.8322923,15.05258675,1854
791,"Ulaanbaatar, Mongolia",47.94097405,106.917963752256,31.80478468,1854
792,"Podgorica, Montenegro",42.4415238,19.2621081,11.43161266,1854
793,"Rabat, Morocco",34.02236,-6.8340222,8.905739099,1854
794,"Maputo, Mozambique",-25.966213,32.56745,9.956034993,1854
795,"Windhoek, Namibia",-22.5776104,17.0772739,10.58342785,1854
796,"Kathmandu, Nepal",27.708317,85.3205817,16.42678715,1854
797,"Amsterdam, Netherlands",52.3730796,4.8924534,15.46362988,1854
798,"Wellington, New Zealand",-41.2887953,174.7772114,5.135241367,1854
799,"Managua, Nicaragua",12.1544035,-86.2737642,13.4002642,1854
800,"Niamey, Niger",13.524834,2.109823,41.08629799,1854
801,"Abuja, Nigeria",9.0643305,7.4892974,41.54235723,1854
802,"Pyongyang, North Korea",39.0167979,125.7473609,14.97287198,1854
803,"Skopje, North Macedonia",41.9961816,21.4319213,11.93671452,1854
804,"Oslo, Norway",59.9133301,10.7389701,6.64640781,1854
805,"Muscat, Oman",23.5882019,58.3829448,30.40372233,1854
806,"Islamabad, Pakistan",33.6938118,73.0651511,19.57590732,1854
807,"Panama City, Panama",8.6671353550533,-80.8169594275597,9.636924965,1854
808,"Asunción, Paraguay",-25.2800459,-57.6343814,12.3931797,1854
809,"Lima, Peru",-12.0621065,-77.0365256,6.687077472,1854
810,"Manila, Philippines",14.5906346,120.9799964,11.55954493,1854
811,"Warsaw, Poland",52.2337172,21.0714322356365,16.9477676,1854
812,"Lisbon, Portugal",38.7077507,-9.1365919,10.50375506,1854
813,"Doha, Qatar",24.73677015,81.4466022001494,31.46884756,1854
814,"Bucharest, Romania",44.4361414,26.1027202,14.04256727,1854
815,"Moscow, Russia",55.7505412,37.6174782,24.87842472,1854
816,"Kigali, Rwanda",-1.8859597,30.1296751,15.8203852,1854
817,"Apia, Samoa",-13.8344639,-171.7649144,4.839324692,1854
818,"San Marino, San Marino",43.9458623,12.458306,11.57785654,1854
819,"São Tomé, São Tomé and Príncipe",0.3389242,6.7313031,13.72664334,1854
820,"Riyadh, Saudi Arabia",24.638916,46.7160104,62.25925746,1854
821,"Dakar, Senegal",14.693425,-17.447938,34.66631977,1854
822,"Belgrade, Serbia",44.8178131,20.4568974,7.748092438,1854
823,"Victoria, Seychelles",-36.5986096,144.6780052,7.964525252,1854
824,"Freetown, Sierra Leone",8.479004,-13.26795,20.39797715,1854
825,"Singapore, Singapore",1.357107,103.8194992,6.562781869,1854
826,"Bratislava, Slovakia",48.1516988,17.1093063,20.48765303,1854
827,"Ljubljana, Slovenia",46.0500268,14.5069289,10.37079215,1854
828,"Honiara, Solomon Islands",-9.43779755,159.962417478605,6.134129093,1854
829,"Mogadishu, Somalia",2.0349312,45.3419183,9.566485793,1854
830,"Pretoria, South Africa",-25.7459277,28.1879101,13.75800451,1854
831,"Seoul, South Korea",37.5666791,126.9782914,8.623275046,1854
832,"Juba, South Sudan",4.8459246,31.5959173,26.57242422,1854
833,"Madrid, Spain",40.4167047,-3.7035825,5.560281834,1854
834,"Colombo, Sri Lanka",6.9388614,79.8542005,8.232090721,1854
835,"Khartoum, Sudan",15.5635972,32.5349123,34.9037224,1854
836,"Paramaribo, Suriname",5.8247628,-55.1703941,15.02798471,1854
837,"Stockholm, Sweden",59.3251172,18.0710935,4.836365769,1854
838,"Bern, Switzerland",46.9484742,7.4521749,16.10188813,1854
839,"Damascus, Syria",33.5145227857709,36.2904335592578,12.18066717,1854
840,"Taipei, Taiwan",25.0375198,121.5636796,7.256958094,1854
841,"Dushanbe, Tajikistan",38.5856947,68.7603746751885,17.66410323,1854
842,"Dar es Salaam, Tanzania",-6.8160837,39.2803583,11.03501089,1854
843,"Bangkok, Thailand",13.7524938,100.4935089,9.463913307,1854
844,"Lomé, Togo",6.15803455,1.25168237324663,33.1612372,1854
845,"Nukuʻalofa, Tonga",-21.1343401,-175.201808,5.137248897,1854
846,"Tunis, Tunisia",36.8002068,10.1857757,12.22704114,1854
847,"Ankara, Turkey",39.7160439,32.7059948,7.916026001,1854
848,"Ashgabat, Turkmenistan",37.9404648,58.3823487,31.14160312,1854
849,"Kampala, Uganda",0.3177137,32.5813539,17.15608399,1854
850,"Kyiv, Ukraine",50.4500336,30.5241361,16.1906488,1854
851,"Abu Dhabi, UAE",24.4538352,54.3774014,23.00188965,1854
852,"London, United Kingdom",51.4893335,-0.144055084527687,36.44426071,1854
853,"Washington, D.C., USA",38.9240943816741,-77.0091011073296,16.30810079,1854
854,"Tashkent, Uzbekistan",41.3123363,69.2787079,21.2175735,1854
855,"Port Vila, Vanuatu",-17.7414972,168.3150163,7.117997594,1854
856,"Vatican City, Vatican City",41.903411,12.4528527,11.81679446,1854
857,"Caracas, Venezuela",10.5060934,-66.9146008,15.08854185,1854
858,"Hanoi, Vietnam",21.0283334,105.854041,8.577182841,1854
859,"Sana'a, Yemen",15.3538569,44.2058841,19.08707792,1854
860,"Lusaka, Zambia",-15.4163395,28.2818414,15.55442904,1854
861,"Harare, Zimbabwe",-17.8567035,31.0601584,14.25236913,1854
862,"Leeds, United Kingdom",53.7974185,-1.5437941,31.85085489,1854
863,"Exeter, United Kingdom",50.7256138,-3.5269209,18.80943556,1854
864,"Edinburgh, United Kingdom",55.9533456,-3.1883749,17.02691804,1854
865,"Los Angeles, USA",34.0536909,-118.242766,9.89325401,1854
866,"Nanjing, China",32.0438284,118.7788631,14.58608819,1854
867,"Shanghai, China",31.2312707,121.4700152,12.13800622,1854
868,"Chennai, India",13.0836939,80.270186,12.44731682,1854
869,"Ahmedabad, India",23.0215374,72.5800568,31.35053439,1854
870,"Fairbanks, USA",64.837845,-147.716675,22.42744709,1854
871,"Birmingham, UK",52.4796992,-1.9026911,28.71718386,1854
872,"São Paulo, Brazil",-23.5506507,-46.6333824,2.478552078,1854
873,"Singapore, Singapore.1",1.357107,103.8194992,6.786357117,1854
874,"Cape Town, South Africa",-33.928992,18.417396,3.816734796,1854
875,"Birmingham, United Kingdom",52.4796992,-1.9026911,28.71718386,1854
876,"Cardiff, United Kingdom",51.4816546,-3.1791934,45.35752815,1854
877,"Belfast, United Kingdom",54.596391,-5.9301829,11.98398553,1854
878,"Reykjavík, Iceland",64.145981,-21.9422367,3.900763604,1854
879,"Yakutsk, Russia",62.0274078,129.7319787,5.596463668,1854
880,"Kabul, Afghanistan",34.5260109,69.1776838,18.3714409,1855
881,"Tirana, Albania",41.3281482,19.8184435,10.14284111,1855
882,"Algiers, Algeria",36.7729309,3.0588291,6.871036419,1855
883,"Luanda, Angola",-8.8272699,13.2439512,19.61639533,1855
884,"Buenos Aires, Argentina",-34.6073387,-58.4432852,5.826210545,1855
885,"Yerevan, Armenia",40.1777112,44.5126233,12.76467599,1855
886,"Sydney, Australia",-33.8698439,151.2082848,3.003427467,1855
887,"Canberra, Australia",-35.2975906,149.1012676,3.88983637,1855
888,"Baku, Azerbaijan",40.3755885,49.8328009,18.3825816,1855
889,"Manama, Bahrain",-8.79691,125.45785,28.00228344,1855
890,"Dhaka, Bangladesh",23.7644025,90.389015,29.92567271,1855
891,"Minsk, Belarus",53.9024716,27.5618225,13.78223469,1855
892,"Brussels, Belgium",50.8550018,4.35123337611662,19.59667284,1855
893,"Cotonou, Benin",6.3676953,2.4252507,25.76848695,1855
894,"Thimphu, Bhutan",27.4713546,89.6336729,10.10503818,1855
895,"La Paz, Bolivia",-16.4955455,-68.1336229,11.79628135,1855
896,"Gaborone, Botswana",-24.6581357,25.9088474,8.76146599,1855
897,"Brasília, Brazil",-10.3333333,-53.2,4.366593461,1855
898,"Sofia, Bulgaria",-15.2538402,48.2562163,13.32012439,1855
899,"Ouagadougou, Burkina Faso",12.3681873,-1.5270944,44.17201741,1855
900,"Bujumbura, Burundi",-3.3638125,29.3675028,17.56000744,1855
901,"Phnom Penh, Cambodia",11.568271,104.9224426,25.24857652,1855
902,"Yaoundé, Cameroon",3.8689867,11.5213344,37.37154334,1855
903,"Ottawa, Canada",45.4110870626566,-75.7083256476122,6.728236722,1855
904,"Bangui, CAR",4.3635118,18.5835913,35.58197401,1855
905,"N'Djaména, Chad",12.1191543,15.0502758,49.36545442,1855
906,"Santiago, Chile",-33.4377756,-70.6504502,4.577800994,1855
907,"Hangzhou, China",30.2489634,120.2052342,14.70211456,1855
908,"Beijing, China",40.190632,116.412144,11.83705981,1855
909,"Bogotá, Colombia",4.6533816,-74.0836333,7.066362593,1855
910,"Brazzaville, Congo",-4.2694407,15.2712256,37.48043949,1855
911,"San José, Costa Rica",9.9325427,-84.0795782,13.03017437,1855
912,"Abidjan, Côte d'Ivoire",5.320357,-4.016107,17.40548193,1855
913,"Zagreb, Croatia",45.8130967,15.9772795,12.62826965,1855
914,"Havana, Cuba",23.135305,-82.3589631,5.628263295,1855
915,"Nicosia, Cyprus",35.1746503,33.3638783,9.740664705,1855
916,"Prague, Czechia",50.0874654,14.4212535,18.62801116,1855
917,"Kinshasa, DRC",-4.3217055,15.3125974,36.85665215,1855
918,"Copenhagen, Denmark",55.6867243,12.5700724,10.71891703,1855
919,"Djibouti, Djibouti",11.8145966,42.8453061,31.18670577,1855
920,"Cairo, Egypt",30.0443879,31.2357257,17.93141557,1855
921,"San Salvador, El Salvador",13.6989939,-89.1914249,13.0085922,1855
922,"Malabo, Equatorial Guinea",3.741877,8.7740663,33.32557044,1855
923,"Asmara, Eritrea",15.3389667,38.9326763,17.40048398,1855
924,"Addis Ababa, Ethiopia",9.0358287,38.7524127,4.8897928,1855
925,"Suva, Fiji",-18.1415884,178.4421662,5.998175643,1855
926,"Paris, France",48.8534951,2.3483915,19.04901688,1855
927,"Libreville, Gabon",0.4086518,9.4418849,19.58336071,1855
928,"Tbilisi, Georgia",41.6934591,44.8014495,10.04373564,1855
929,"Berlin, Germany",52.510885,13.3989367,18.22132437,1855
930,"Accra, Ghana",5.5571096,-0.2012376,24.17201878,1855
931,"Athens, Greece",37.9887791133275,23.7191086388293,9.464066251,1855
932,"Guatemala City, Guatemala",14.6416142,-90.5132836,11.05830461,1855
933,"Conakry, Guinea",9.5170602,-13.6998434,28.64890566,1855
934,"Bissau, Guinea-Bissau",11.87018055,-15.6077045647727,31.21928239,1855
935,"Port-au-Prince, Haiti",18.547327,-72.3395928,9.622884654,1855
936,"Tegucigalpa, Honduras",14.1057433,-87.2040052,20.13981297,1855
937,"Budapest, Hungary",47.48138955,19.1460941269125,30.69610701,1855
938,"Delhi, India",28.6273928,77.1716954,48.14930998,1855
939,"Jakarta, Indonesia",-6.175247,106.8270488,7.093811806,1855
940,"Tehran, Iran",35.6892523,51.3896004,18.50868173,1855
941,"Baghdad, Iraq",33.3061701,44.3872213,29.65908261,1855
942,"Dublin, Ireland",53.3493795,-6.2605593,10.06191615,1855
943,"Jerusalem, Israel",31.7788242,35.2257626,9.29161698,1855
944,"Rome, Italy",41.8933203,12.4829321,12.77941775,1855
945,"Tokyo, Japan",35.6821936,139.762221,7.383451941,1855
946,"Amman, Jordan",31.9515694,35.9239625,12.92935079,1855
947,"Temirtau, Kazakhstan",50.0587825,72.9535681,10.99958103,1855
948,"Astana, Kazakhstan",51.1282205,71.4306682,9.287556776,1855
949,"Nairobi, Kenya",-1.30261485,36.8288420181373,9.211057901,1855
950,"Kuwait City, Kuwait",29.3796532,47.9734174,39.02505672,1855
951,"Bishkek, Kyrgyzstan",42.8777895,74.6066926,17.52148672,1855
952,"Vientiane, Laos",17.9640988,102.6133707,30.36032624,1855
953,"Riga, Latvia",56.9493977,24.1051846,16.24720501,1855
954,"Monrovia, Liberia",6.328034,-10.797788,17.03954995,1855
955,"Tripoli, Libya",32.896672,13.1777923,15.93864226,1855
956,"Vilnius, Lithuania",54.6870458,25.2829111,10.81505089,1855
957,"Luxembourg, Luxembourg",49.6112768,6.129799,16.5483762,1855
958,"Antananarivo, Madagascar",-18.9100122,47.5255809,11.61526787,1855
959,"Lilongwe, Malawi",-13.9875107,33.768144,12.96814663,1855
960,"Kuala Lumpur, Malaysia",3.1516964,101.6942371,4.793480621,1855
961,"Bamako, Mali",12.61326555,-7.9847391362413,30.0404123,1855
962,"Valletta, Malta",35.8989818,14.5136759,9.783720564,1855
963,"Nouakchott, Mauritania",18.0618918,-15.9311481578329,61.8699925,1855
964,"Port Louis, Mauritius",-20.1624522,57.5028044,13.57039294,1855
965,"Mexico City, Mexico",19.4326296,-99.1331785,8.826550674,1855
966,"Chisinau, Moldova",47.0245117,28.8322923,16.08247092,1855
967,"Ulaanbaatar, Mongolia",47.94097405,106.917963752256,30.60019354,1855
968,"Podgorica, Montenegro",42.4415238,19.2621081,11.0825339,1855
969,"Rabat, Morocco",34.02236,-6.8340222,8.839673275,1855
970,"Maputo, Mozambique",-25.966213,32.56745,9.625714839,1855
971,"Windhoek, Namibia",-22.5776104,17.0772739,9.99195247,1855
972,"Kathmandu, Nepal",27.708317,85.3205817,16.84441228,1855
973,"Amsterdam, Netherlands",52.3730796,4.8924534,16.07758865,1855
974,"Wellington, New Zealand",-41.2887953,174.7772114,5.167445741,1855
975,"Managua, Nicaragua",12.1544035,-86.2737642,12.65297308,1855
976,"Niamey, Niger",13.524834,2.109823,45.31927695,1855
977,"Abuja, Nigeria",9.0643305,7.4892974,41.75500969,1855
978,"Pyongyang, North Korea",39.0167979,125.7473609,15.18527897,1855
979,"Skopje, North Macedonia",41.9961816,21.4319213,11.35510454,1855
980,"Oslo, Norway",59.9133301,10.7389701,7.024065715,1855
981,"Muscat, Oman",23.5882019,58.3829448,28.81700758,1855
982,"Islamabad, Pakistan",33.6938118,73.0651511,19.6637862,1855
983,"Panama City, Panama",8.6671353550533,-80.8169594275597,9.777269283,1855
984,"Asunción, Paraguay",-25.2800459,-57.6343814,13.47777452,1855
985,"Lima, Peru",-12.0621065,-77.0365256,6.420577392,1855
986,"Manila, Philippines",14.5906346,120.9799964,11.61425093,1855
987,"Warsaw, Poland",52.2337172,21.0714322356365,18.04931773,1855
988,"Lisbon, Portugal",38.7077507,-9.1365919,10.29010751,1855
989,"Doha, Qatar",24.73677015,81.4466022001494,32.01140292,1855
990,"Bucharest, Romania",44.4361414,26.1027202,14.49867354,1855
991,"Moscow, Russia",55.7505412,37.6174782,22.55505936,1855
992,"Kigali, Rwanda",-1.8859597,30.1296751,16.34347238,1855
993,"Apia, Samoa",-13.8344639,-171.7649144,4.394747223,1855
994,"San Marino, San Marino",43.9458623,12.458306,12.09854471,1855
995,"São Tomé, São Tomé and Príncipe",0.3389242,6.7313031,13.4445465,1855
996,"Riyadh, Saudi Arabia",24.638916,46.7160104,66.70725151,1855
997,"Dakar, Senegal",14.693425,-17.447938,38.78168891,1855
998,"Belgrade, Serbia",44.8178131,20.4568974,7.642679511,1855
999,"Victoria, Seychelles",-36.5986096,144.6780052,8.022120292,1855
1000,"Freetown, Sierra Leone",8.479004,-13.26795,22.56244331,1855
1001,"Singapore, Singapore",1.357107,103.8194992,6.40111966,1855
1002,"Bratislava, Slovakia",48.1516988,17.1093063,22.58258428,1855
1003,"Ljubljana, Slovenia",46.0500268,14.5069289,11.00711152,1855
1004,"Honiara, Solomon Islands",-9.43779755,159.962417478605,6.293941824,1855
1005,"Mogadishu, Somalia",2.0349312,45.3419183,9.959752359,1855
1006,"Pretoria, South Africa",-25.7459277,28.1879101,12.65328112,1855
1007,"Seoul, South Korea",37.5666791,126.9782914,8.95511035,1855
1008,"Juba, South Sudan",4.8459246,31.5959173,26.44788687,1855
1009,"Madrid, Spain",40.4167047,-3.7035825,5.929922721,1855
1010,"Colombo, Sri Lanka",6.9388614,79.8542005,8.109072311,1855
1011,"Khartoum, Sudan",15.5635972,32.5349123,37.84659812,1855
1012,"Paramaribo, Suriname",5.8247628,-55.1703941,15.71438263,1855
1013,"Stockholm, Sweden",59.3251172,18.0710935,5.025797157,1855
1014,"Bern, Switzerland",46.9484742,7.4521749,16.49680569,1855
1015,"Damascus, Syria",33.5145227857709,36.2904335592578,11.8468919,1855
1016,"Taipei, Taiwan",25.0375198,121.5636796,7.134099027,1855
1017,"Dushanbe, Tajikistan",38.5856947,68.7603746751885,19.33564142,1855
1018,"Dar es Salaam, Tanzania",-6.8160837,39.2803583,11.57185936,1855
1019,"Bangkok, Thailand",13.7524938,100.4935089,10.71100959,1855
1020,"Lomé, Togo",6.15803455,1.25168237324663,34.22976008,1855
1021,"Nukuʻalofa, Tonga",-21.1343401,-175.201808,4.608853372,1855
1022,"Tunis, Tunisia",36.8002068,10.1857757,12.8349597,1855
1023,"Ankara, Turkey",39.7160439,32.7059948,7.051245954,1855
1024,"Ashgabat, Turkmenistan",37.9404648,58.3823487,32.12526286,1855
1025,"Kampala, Uganda",0.3177137,32.5813539,19.08465532,1855
1026,"Kyiv, Ukraine",50.4500336,30.5241361,16.74459183,1855
1027,"Abu Dhabi, UAE",24.4538352,54.3774014,22.7874806,1855
1028,"London, United Kingdom",51.4893335,-0.144055084527687,33.23911982,1855
1029,"Washington, D.C., USA",38.9240943816741,-77.0091011073296,16.6537208,1855
1030,"Tashkent, Uzbekistan",41.3123363,69.2787079,22.58783116,1855
1031,"Port Vila, Vanuatu",-17.7414972,168.3150163,6.638809273,1855
1032,"Vatican City, Vatican City",41.903411,12.4528527,12.41301471,1855
1033,"Caracas, Venezuela",10.5060934,-66.9146008,14.85531825,1855
1034,"Hanoi, Vietnam",21.0283334,105.854041,9.133387933,1855
1035,"Sana'a, Yemen",15.3538569,44.2058841,18.29976793,1855
1036,"Lusaka, Zambia",-15.4163395,28.2818414,16.62326627,1855
1037,"Harare, Zimbabwe",-17.8567035,31.0601584,14.69302222,1855
1038,"Leeds, United Kingdom",53.7974185,-1.5437941,30.54318016,1855
1039,"Exeter, United Kingdom",50.7256138,-3.5269209,17.86049974,1855
1040,"Edinburgh, United Kingdom",55.9533456,-3.1883749,17.0018078,1855
1041,"Los Angeles, USA",34.0536909,-118.242766,10.03071782,1855
1042,"Nanjing, China",32.0438284,118.7788631,14.12658962,1855
1043,"Shanghai, China",31.2312707,121.4700152,11.85386504,1855
1044,"Chennai, India",13.0836939,80.270186,12.42774238,1855
1045,"Ahmedabad, India",23.0215374,72.5800568,30.89231246,1855
1046,"Fairbanks, USA",64.837845,-147.716675,22.77134195,1855
1047,"Birmingham, UK",52.4796992,-1.9026911,26.96190528,1855
1048,"São Paulo, Brazil",-23.5506507,-46.6333824,2.616075702,1855
1049,"Singapore, Singapore.1",1.357107,103.8194992,6.613454226,1855
1050,"Cape Town, South Africa",-33.928992,18.417396,3.954841336,1855
1051,"Birmingham, United Kingdom",52.4796992,-1.9026911,26.96190528,1855
1052,"Cardiff, United Kingdom",51.4816546,-3.1791934,40.69127097,1855
1053,"Belfast, United Kingdom",54.596391,-5.9301829,12.25892277,1855
1054,"Reykjavík, Iceland",64.145981,-21.9422367,4.116586764,1855
1055,"Yakutsk, Russia",62.0274078,129.7319787,4.503533794,1855
1056,"Kabul, Afghanistan",34.5260109,69.1776838,16.98811923,1856
1057,"Tirana, Albania",41.3281482,19.8184435,10.98389712,1856
1058,"Algiers, Algeria",36.7729309,3.0588291,6.611731505,1856
1059,"Luanda, Angola",-8.8272699,13.2439512,17.2134891,1856
1060,"Buenos Aires, Argentina",-34.6073387,-58.4432852,5.771851574,1856
1061,"Yerevan, Armenia",40.1777112,44.5126233,13.49576108,1856
1062,"Sydney, Australia",-33.8698439,151.2082848,3.154123806,1856
1063,"Canberra, Australia",-35.2975906,149.1012676,3.970844222,1856
1064,"Baku, Azerbaijan",40.3755885,49.8328009,19.99254778,1856
1065,"Manama, Bahrain",-8.79691,125.45785,27.51374143,1856
1066,"Dhaka, Bangladesh",23.7644025,90.389015,29.99405523,1856
1067,"Minsk, Belarus",53.9024716,27.5618225,14.47937225,1856
1068,"Brussels, Belgium",50.8550018,4.35123337611662,19.62243118,1856
1069,"Cotonou, Benin",6.3676953,2.4252507,23.09031207,1856
1070,"Thimphu, Bhutan",27.4713546,89.6336729,10.20644212,1856
1071,"La Paz, Bolivia",-16.4955455,-68.1336229,11.95060105,1856
1072,"Gaborone, Botswana",-24.6581357,25.9088474,8.195837963,1856
1073,"Brasília, Brazil",-10.3333333,-53.2,4.221949837,1856
1074,"Sofia, Bulgaria",-15.2538402,48.2562163,14.00291985,1856
1075,"Ouagadougou, Burkina Faso",12.3681873,-1.5270944,40.86576851,1856
1076,"Bujumbura, Burundi",-3.3638125,29.3675028,15.98483202,1856
1077,"Phnom Penh, Cambodia",11.568271,104.9224426,25.64230446,1856
1078,"Yaoundé, Cameroon",3.8689867,11.5213344,36.90356007,1856
1079,"Ottawa, Canada",45.4110870626566,-75.7083256476122,7.409092644,1856
1080,"Bangui, CAR",4.3635118,18.5835913,36.07143072,1856
1081,"N'Djaména, Chad",12.1191543,15.0502758,46.20501899,1856
1082,"Santiago, Chile",-33.4377756,-70.6504502,4.432273594,1856
1083,"Hangzhou, China",30.2489634,120.2052342,14.73371639,1856
1084,"Beijing, China",40.190632,116.412144,11.70990355,1856
1085,"Bogotá, Colombia",4.6533816,-74.0836333,6.803974818,1856
1086,"Brazzaville, Congo",-4.2694407,15.2712256,31.71180025,1856
1087,"San José, Costa Rica",9.9325427,-84.0795782,13.29634423,1856
1088,"Abidjan, Côte d'Ivoire",5.320357,-4.016107,15.6002775,1856
1089,"Zagreb, Croatia",45.8130967,15.9772795,13.30907942,1856
1090,"Havana, Cuba",23.135305,-82.3589631,5.596333776,1856
1091,"Nicosia, Cyprus",35.1746503,33.3638783,10.25623887,1856
1092,"Prague, Czechia",50.0874654,14.4212535,19.68945595,1856
1093,"Kinshasa, DRC",-4.3217055,15.3125974,31.11627526,1856
1094,"Copenhagen, Denmark",55.6867243,12.5700724,10.94566344,1856
1095,"Djibouti, Djibouti",11.8145966,42.8453061,30.87592218,1856
1096,"Cairo, Egypt",30.0443879,31.2357257,18.28537572,1856
1097,"San Salvador, El Salvador",13.6989939,-89.1914249,13.13852896,1856
1098,"Malabo, Equatorial Guinea",3.741877,8.7740663,32.2018078,1856
1099,"Asmara, Eritrea",15.3389667,38.9326763,20.28191193,1856
1100,"Addis Ababa, Ethiopia",9.0358287,38.7524127,5.407179024,1856
1101,"Suva, Fiji",-18.1415884,178.4421662,5.955656566,1856
1102,"Paris, France",48.8534951,2.3483915,18.852042,1856
1103,"Libreville, Gabon",0.4086518,9.4418849,18.88998757,1856
1104,"Tbilisi, Georgia",41.6934591,44.8014495,10.76222806,1856
1105,"Berlin, Germany",52.510885,13.3989367,19.30116592,1856
1106,"Accra, Ghana",5.5571096,-0.2012376,22.17784342,1856
1107,"Athens, Greece",37.9887791133275,23.7191086388293,9.72842107,1856
1108,"Guatemala City, Guatemala",14.6416142,-90.5132836,11.21308757,1856
1109,"Conakry, Guinea",9.5170602,-13.6998434,26.6972781,1856
1110,"Bissau, Guinea-Bissau",11.87018055,-15.6077045647727,29.19938392,1856
1111,"Port-au-Prince, Haiti",18.547327,-72.3395928,9.934794871,1856
1112,"Tegucigalpa, Honduras",14.1057433,-87.2040052,21.19203467,1856
1113,"Budapest, Hungary",47.48138955,19.1460941269125,29.66510618,1856
1114,"Delhi, India",28.6273928,77.1716954,49.24997143,1856
1115,"Jakarta, Indonesia",-6.175247,106.8270488,7.417142492,1856
1116,"Tehran, Iran",35.6892523,51.3896004,18.81257002,1856
1117,"Baghdad, Iraq",33.3061701,44.3872213,27.65964712,1856
1118,"Dublin, Ireland",53.3493795,-6.2605593,10.47582487,1856
1119,"Jerusalem, Israel",31.7788242,35.2257626,9.729176144,1856
1120,"Rome, Italy",41.8933203,12.4829321,13.57746776,1856
1121,"Tokyo, Japan",35.6821936,139.762221,7.521156423,1856
1122,"Amman, Jordan",31.9515694,35.9239625,13.0896818,1856
1123,"Temirtau, Kazakhstan",50.0587825,72.9535681,9.598171612,1856
1124,"Astana, Kazakhstan",51.1282205,71.4306682,8.413567863,1856
1125,"Nairobi, Kenya",-1.30261485,36.8288420181373,9.036830224,1856
1126,"Kuwait City, Kuwait",29.3796532,47.9734174,35.62399087,1856
1127,"Bishkek, Kyrgyzstan",42.8777895,74.6066926,16.30281831,1856
1128,"Vientiane, Laos",17.9640988,102.6133707,30.66935834,1856
1129,"Riga, Latvia",56.9493977,24.1051846,17.4417757,1856
1130,"Monrovia, Liberia",6.328034,-10.797788,15.66252788,1856
1131,"Tripoli, Libya",32.896672,13.1777923,16.74842435,1856
1132,"Vilnius, Lithuania",54.6870458,25.2829111,11.10319106,1856
1133,"Luxembourg, Luxembourg",49.6112768,6.129799,16.58840403,1856
1134,"Antananarivo, Madagascar",-18.9100122,47.5255809,11.04370064,1856
1135,"Lilongwe, Malawi",-13.9875107,33.768144,11.8189759,1856
1136,"Kuala Lumpur, Malaysia",3.1516964,101.6942371,4.864917274,1856
1137,"Bamako, Mali",12.61326555,-7.9847391362413,28.56156437,1856
1138,"Valletta, Malta",35.8989818,14.5136759,9.882953471,1856
1139,"Nouakchott, Mauritania",18.0618918,-15.9311481578329,57.97877067,1856
1140,"Port Louis, Mauritius",-20.1624522,57.5028044,13.78937035,1856
1141,"Mexico City, Mexico",19.4326296,-99.1331785,8.529394912,1856
1142,"Chisinau, Moldova",47.0245117,28.8322923,15.90526361,1856
1143,"Ulaanbaatar, Mongolia",47.94097405,106.917963752256,31.88519009,1856
1144,"Podgorica, Montenegro",42.4415238,19.2621081,12.04725286,1856
1145,"Rabat, Morocco",34.02236,-6.8340222,9.198614505,1856
1146,"Maputo, Mozambique",-25.966213,32.56745,8.811744671,1856
1147,"Windhoek, Namibia",-22.5776104,17.0772739,9.80914591,1856
1148,"Kathmandu, Nepal",27.708317,85.3205817,15.44247129,1856
1149,"Amsterdam, Netherlands",52.3730796,4.8924534,16.15400014,1856
1150,"Wellington, New Zealand",-41.2887953,174.7772114,5.315664937,1856
1151,"Managua, Nicaragua",12.1544035,-86.2737642,13.64286844,1856
1152,"Niamey, Niger",13.524834,2.109823,41.97856738,1856
1153,"Abuja, Nigeria",9.0643305,7.4892974,39.28586906,1856
1154,"Pyongyang, North Korea",39.0167979,125.7473609,15.51792122,1856
1155,"Skopje, North Macedonia",41.9961816,21.4319213,12.00279388,1856
1156,"Oslo, Norway",59.9133301,10.7389701,7.203682561,1856
1157,"Muscat, Oman",23.5882019,58.3829448,29.45936511,1856
1158,"Islamabad, Pakistan",33.6938118,73.0651511,18.72167822,1856
1159,"Panama City, Panama",8.6671353550533,-80.8169594275597,9.629665196,1856
1160,"Asunción, Paraguay",-25.2800459,-57.6343814,13.10698845,1856
1161,"Lima, Peru",-12.0621065,-77.0365256,6.709984772,1856
1162,"Manila, Philippines",14.5906346,120.9799964,11.69153713,1856
1163,"Warsaw, Poland",52.2337172,21.0714322356365,18.10054224,1856
1164,"Lisbon, Portugal",38.7077507,-9.1365919,10.5009852,1856
1165,"Doha, Qatar",24.73677015,81.4466022001494,32.73034717,1856
1166,"Bucharest, Romania",44.4361414,26.1027202,14.61176857,1856
1167,"Moscow, Russia",55.7505412,37.6174782,24.81546119,1856
1168,"Kigali, Rwanda",-1.8859597,30.1296751,14.52350825,1856
1169,"Apia, Samoa",-13.8344639,-171.7649144,4.347324154,1856
1170,"San Marino, San Marino",43.9458623,12.458306,12.90312078,1856
1171,"São Tomé, São Tomé and Príncipe",0.3389242,6.7313031,13.23796565,1856
1172,"Riyadh, Saudi Arabia",24.638916,46.7160104,60.96979011,1856
1173,"Dakar, Senegal",14.693425,-17.447938,35.60530361,1856
1174,"Belgrade, Serbia",44.8178131,20.4568974,8.071503657,1856
1175,"Victoria, Seychelles",-36.5986096,144.6780052,7.862423123,1856
1176,"Freetown, Sierra Leone",8.479004,-13.26795,20.94060577,1856
1177,"Singapore, Singapore",1.357107,103.8194992,6.573959134,1856
1178,"Bratislava, Slovakia",48.1516988,17.1093063,23.14762337,1856
1179,"Ljubljana, Slovenia",46.0500268,14.5069289,11.81826013,1856
1180,"Honiara, Solomon Islands",-9.43779755,159.962417478605,6.941472086,1856
1181,"Mogadishu, Somalia",2.0349312,45.3419183,9.796490885,1856
1182,"Pretoria, South Africa",-25.7459277,28.1879101,12.39213604,1856
1183,"Seoul, South Korea",37.5666791,126.9782914,9.011523547,1856
1184,"Juba, South Sudan",4.8459246,31.5959173,24.96048532,1856
1185,"Madrid, Spain",40.4167047,-3.7035825,5.568987376,1856
1186,"Colombo, Sri Lanka",6.9388614,79.8542005,8.081225534,1856
1187,"Khartoum, Sudan",15.5635972,32.5349123,36.72125226,1856
1188,"Paramaribo, Suriname",5.8247628,-55.1703941,15.24639757,1856
1189,"Stockholm, Sweden",59.3251172,18.0710935,5.329080448,1856
1190,"Bern, Switzerland",46.9484742,7.4521749,16.47557886,1856
1191,"Damascus, Syria",33.5145227857709,36.2904335592578,11.94571906,1856
1192,"Taipei, Taiwan",25.0375198,121.5636796,7.124826563,1856
1193,"Dushanbe, Tajikistan",38.5856947,68.7603746751885,17.67288627,1856
1194,"Dar es Salaam, Tanzania",-6.8160837,39.2803583,11.03986922,1856
1195,"Bangkok, Thailand",13.7524938,100.4935089,10.37306471,1856
1196,"Lomé, Togo",6.15803455,1.25168237324663,31.77998924,1856
1197,"Nukuʻalofa, Tonga",-21.1343401,-175.201808,4.509134686,1856
1198,"Tunis, Tunisia",36.8002068,10.1857757,13.62813545,1856
1199,"Ankara, Turkey",39.7160439,32.7059948,7.687721269,1856
1200,"Ashgabat, Turkmenistan",37.9404648,58.3823487,31.71308872,1856
1201,"Kampala, Uganda",0.3177137,32.5813539,17.63439754,1856
1202,"Kyiv, Ukraine",50.4500336,30.5241361,17.99597448,1856
1203,"Abu Dhabi, UAE",24.4538352,54.3774014,23.06591726,1856
1204,"London, United Kingdom",51.4893335,-0.144055084527687,34.30237423,1856
1205,"Washington, D.C., USA",38.9240943816741,-77.0091011073296,17.73824237,1856
1206,"Tashkent, Uzbekistan",41.3123363,69.2787079,19.7502535,1856
1207,"Port Vila, Vanuatu",-17.7414972,168.3150163,6.871049401,1856
1208,"Vatican City, Vatican City",41.903411,12.4528527,13.18939222,1856
1209,"Caracas, Venezuela",10.5060934,-66.9146008,14.30540646,1856
1210,"Hanoi, Vietnam",21.0283334,105.854041,8.79762941,1856
1211,"Sana'a, Yemen",15.3538569,44.2058841,20.18244779,1856
1212,"Lusaka, Zambia",-15.4163395,28.2818414,14.10599179,1856
1213,"Harare, Zimbabwe",-17.8567035,31.0601584,12.93051733,1856
1214,"Leeds, United Kingdom",53.7974185,-1.5437941,31.93406871,1856
1215,"Exeter, United Kingdom",50.7256138,-3.5269209,18.94866963,1856
1216,"Edinburgh, United Kingdom",55.9533456,-3.1883749,17.60936788,1856
1217,"Los Angeles, USA",34.0536909,-118.242766,9.993752331,1856
1218,"Nanjing, China",32.0438284,118.7788631,14.52769576,1856
1219,"Shanghai, China",31.2312707,121.4700152,12.05056523,1856
1220,"Chennai, India",13.0836939,80.270186,12.19533043,1856
1221,"Ahmedabad, India",23.0215374,72.5800568,31.35760536,1856
1222,"Fairbanks, USA",64.837845,-147.716675,23.04942155,1856
1223,"Birmingham, UK",52.4796992,-1.9026911,28.40091712,1856
1224,"São Paulo, Brazil",-23.5506507,-46.6333824,2.679285972,1856
1225,"Singapore, Singapore.1",1.357107,103.8194992,6.789636506,1856
1226,"Cape Town, South Africa",-33.928992,18.417396,3.767130233,1856
1227,"Birmingham, United Kingdom",52.4796992,-1.9026911,28.40091712,1856
1228,"Cardiff, United Kingdom",51.4816546,-3.1791934,43.32147915,1856
1229,"Belfast, United Kingdom",54.596391,-5.9301829,12.80183852,1856
1230,"Reykjavík, Iceland",64.145981,-21.9422367,3.86529598,1856
1231,"Yakutsk, Russia",62.0274078,129.7319787,5.118750433,1856
1232,"Kabul, Afghanistan",34.5260109,69.1776838,15.97547896,1857
1233,"Tirana, Albania",41.3281482,19.8184435,10.10248748,1857
1234,"Algiers, Algeria",36.7729309,3.0588291,6.361436081,1857
1235,"Luanda, Angola",-8.8272699,13.2439512,18.19524887,1857
1236,"Buenos Aires, Argentina",-34.6073387,-58.4432852,5.707902126,1857
1237,"Yerevan, Armenia",40.1777112,44.5126233,14.41711065,1857
1238,"Sydney, Australia",-33.8698439,151.2082848,3.496488838,1857
1239,"Canberra, Australia",-35.2975906,149.1012676,4.387919393,1857
1240,"Baku, Azerbaijan",40.3755885,49.8328009,19.52459597,1857
1241,"Manama, Bahrain",-8.79691,125.45785,27.95650586,1857
1242,"Dhaka, Bangladesh",23.7644025,90.389015,33.26239217,1857
1243,"Minsk, Belarus",53.9024716,27.5618225,14.47772246,1857
1244,"Brussels, Belgium",50.8550018,4.35123337611662,20.56864975,1857
1245,"Cotonou, Benin",6.3676953,2.4252507,25.25452953,1857
1246,"Thimphu, Bhutan",27.4713546,89.6336729,12.61929552,1857
1247,"La Paz, Bolivia",-16.4955455,-68.1336229,12.78630822,1857
1248,"Gaborone, Botswana",-24.6581357,25.9088474,8.868668365,1857
1249,"Brasília, Brazil",-10.3333333,-53.2,4.252568941,1857
1250,"Sofia, Bulgaria",-15.2538402,48.2562163,13.29538068,1857
1251,"Ouagadougou, Burkina Faso",12.3681873,-1.5270944,43.64663844,1857
1252,"Bujumbura, Burundi",-3.3638125,29.3675028,17.00904517,1857
1253,"Phnom Penh, Cambodia",11.568271,104.9224426,28.70313958,1857
1254,"Yaoundé, Cameroon",3.8689867,11.5213344,38.45338656,1857
1255,"Ottawa, Canada",45.4110870626566,-75.7083256476122,7.515903465,1857
1256,"Bangui, CAR",4.3635118,18.5835913,34.08326027,1857
1257,"N'Djaména, Chad",12.1191543,15.0502758,47.82961838,1857
1258,"Santiago, Chile",-33.4377756,-70.6504502,4.384547392,1857
1259,"Hangzhou, China",30.2489634,120.2052342,14.28465629,1857
1260,"Beijing, China",40.190632,116.412144,11.42258087,1857
1261,"Bogotá, Colombia",4.6533816,-74.0836333,7.329879362,1857
1262,"Brazzaville, Congo",-4.2694407,15.2712256,33.97047103,1857
1263,"San José, Costa Rica",9.9325427,-84.0795782,13.29346902,1857
1264,"Abidjan, Côte d'Ivoire",5.320357,-4.016107,17.29448499,1857
1265,"Zagreb, Croatia",45.8130967,15.9772795,12.47753766,1857
1266,"Havana, Cuba",23.135305,-82.3589631,5.592410066,1857
1267,"Nicosia, Cyprus",35.1746503,33.3638783,9.891630601,1857
1268,"Prague, Czechia",50.0874654,14.4212535,19.06726338,1857
1269,"Kinshasa, DRC",-4.3217055,15.3125974,33.41127752,1857
1270,"Copenhagen, Denmark",55.6867243,12.5700724,11.24812268,1857
1271,"Djibouti, Djibouti",11.8145966,42.8453061,31.3569622,1857
1272,"Cairo, Egypt",30.0443879,31.2357257,18.83607632,1857
1273,"San Salvador, El Salvador",13.6989939,-89.1914249,12.37471044,1857
1274,"Malabo, Equatorial Guinea",3.741877,8.7740663,33.1150353,1857
1275,"Asmara, Eritrea",15.3389667,38.9326763,18.25287502,1857
1276,"Addis Ababa, Ethiopia",9.0358287,38.7524127,5.263475489,1857
1277,"Suva, Fiji",-18.1415884,178.4421662,6.468922362,1857
1278,"Paris, France",48.8534951,2.3483915,20.41327163,1857
1279,"Libreville, Gabon",0.4086518,9.4418849,19.26667209,1857
1280,"Tbilisi, Georgia",41.6934591,44.8014495,11.44369422,1857
1281,"Berlin, Germany",52.510885,13.3989367,19.01279014,1857
1282,"Accra, Ghana",5.5571096,-0.2012376,24.49386968,1857
1283,"Athens, Greece",37.9887791133275,23.7191086388293,9.782772498,1857
1284,"Guatemala City, Guatemala",14.6416142,-90.5132836,10.53400522,1857
1285,"Conakry, Guinea",9.5170602,-13.6998434,26.81549922,1857
1286,"Bissau, Guinea-Bissau",11.87018055,-15.6077045647727,28.5740598,1857
1287,"Port-au-Prince, Haiti",18.547327,-72.3395928,10.24596476,1857
1288,"Tegucigalpa, Honduras",14.1057433,-87.2040052,19.63703596,1857
1289,"Budapest, Hungary",47.48138955,19.1460941269125,28.77541364,1857
1290,"Delhi, India",28.6273928,77.1716954,55.38499837,1857
1291,"Jakarta, Indonesia",-6.175247,106.8270488,7.384255856,1857
1292,"Tehran, Iran",35.6892523,51.3896004,18.1894533,1857
1293,"Baghdad, Iraq",33.3061701,44.3872213,26.91731545,1857
1294,"Dublin, Ireland",53.3493795,-6.2605593,10.46307204,1857
1295,"Jerusalem, Israel",31.7788242,35.2257626,9.808624502,1857
1296,"Rome, Italy",41.8933203,12.4829321,12.98626581,1857
1297,"Tokyo, Japan",35.6821936,139.762221,7.090524458,1857
1298,"Amman, Jordan",31.9515694,35.9239625,13.13452986,1857
1299,"Temirtau, Kazakhstan",50.0587825,72.9535681,9.55865757,1857
1300,"Astana, Kazakhstan",51.1282205,71.4306682,8.474292286,1857
1301,"Nairobi, Kenya",-1.30261485,36.8288420181373,9.159338897,1857
1302,"Kuwait City, Kuwait",29.3796532,47.9734174,37.61371234,1857
1303,"Bishkek, Kyrgyzstan",42.8777895,74.6066926,14.76735982,1857
1304,"Vientiane, Laos",17.9640988,102.6133707,33.05245571,1857
1305,"Riga, Latvia",56.9493977,24.1051846,16.84856283,1857
1306,"Monrovia, Liberia",6.328034,-10.797788,16.40619862,1857
1307,"Tripoli, Libya",32.896672,13.1777923,16.28031472,1857
1308,"Vilnius, Lithuania",54.6870458,25.2829111,11.05322995,1857
1309,"Luxembourg, Luxembourg",49.6112768,6.129799,17.55791627,1857
1310,"Antananarivo, Madagascar",-18.9100122,47.5255809,11.94364714,1857
1311,"Lilongwe, Malawi",-13.9875107,33.768144,12.82826051,1857
1312,"Kuala Lumpur, Malaysia",3.1516964,101.6942371,4.871995999,1857
1313,"Bamako, Mali",12.61326555,-7.9847391362413,29.36318644,1857
1314,"Valletta, Malta",35.8989818,14.5136759,9.663997361,1857
1315,"Nouakchott, Mauritania",18.0618918,-15.9311481578329,57.58568642,1857
1316,"Port Louis, Mauritius",-20.1624522,57.5028044,13.16519093,1857
1317,"Mexico City, Mexico",19.4326296,-99.1331785,8.204510261,1857
1318,"Chisinau, Moldova",47.0245117,28.8322923,15.93898288,1857
1319,"Ulaanbaatar, Mongolia",47.94097405,106.917963752256,29.63201643,1857
1320,"Podgorica, Montenegro",42.4415238,19.2621081,11.14375942,1857
1321,"Rabat, Morocco",34.02236,-6.8340222,10.01534211,1857
1322,"Maputo, Mozambique",-25.966213,32.56745,9.843588572,1857
1323,"Windhoek, Namibia",-22.5776104,17.0772739,10.42363205,1857
1324,"Kathmandu, Nepal",27.708317,85.3205817,20.07388786,1857
1325,"Amsterdam, Netherlands",52.3730796,4.8924534,16.66806575,1857
1326,"Wellington, New Zealand",-41.2887953,174.7772114,5.526054413,1857
1327,"Managua, Nicaragua",12.1544035,-86.2737642,12.60752301,1857
1328,"Niamey, Niger",13.524834,2.109823,44.64554058,1857
1329,"Abuja, Nigeria",9.0643305,7.4892974,42.10256895,1857
1330,"Pyongyang, North Korea",39.0167979,125.7473609,14.41545467,1857
1331,"Skopje, North Macedonia",41.9961816,21.4319213,11.23874095,1857
1332,"Oslo, Norway",59.9133301,10.7389701,7.217390389,1857
1333,"Muscat, Oman",23.5882019,58.3829448,27.62122301,1857
1334,"Islamabad, Pakistan",33.6938118,73.0651511,20.64456802,1857
1335,"Panama City, Panama",8.6671353550533,-80.8169594275597,9.954863967,1857
1336,"Asunción, Paraguay",-25.2800459,-57.6343814,11.77296359,1857
1337,"Lima, Peru",-12.0621065,-77.0365256,6.747478392,1857
1338,"Manila, Philippines",14.5906346,120.9799964,12.54416606,1857
1339,"Warsaw, Poland",52.2337172,21.0714322356365,17.52602361,1857
1340,"Lisbon, Portugal",38.7077507,-9.1365919,11.00267487,1857
1341,"Doha, Qatar",24.73677015,81.4466022001494,31.56594509,1857
1342,"Bucharest, Romania",44.4361414,26.1027202,14.37907575,1857
1343,"Moscow, Russia",55.7505412,37.6174782,25.72768548,1857
1344,"Kigali, Rwanda",-1.8859597,30.1296751,15.45438886,1857
1345,"Apia, Samoa",-13.8344639,-171.7649144,4.830586539,1857
1346,"San Marino, San Marino",43.9458623,12.458306,12.15763121,1857
1347,"São Tomé, São Tomé and Príncipe",0.3389242,6.7313031,13.32788869,1857
1348,"Riyadh, Saudi Arabia",24.638916,46.7160104,63.71289145,1857
1349,"Dakar, Senegal",14.693425,-17.447938,35.32722791,1857
1350,"Belgrade, Serbia",44.8178131,20.4568974,7.742300809,1857
1351,"Victoria, Seychelles",-36.5986096,144.6780052,7.556616909,1857
1352,"Freetown, Sierra Leone",8.479004,-13.26795,20.94118572,1857
1353,"Singapore, Singapore",1.357107,103.8194992,6.475597275,1857
1354,"Bratislava, Slovakia",48.1516988,17.1093063,22.43027272,1857
1355,"Ljubljana, Slovenia",46.0500268,14.5069289,11.07850594,1857
1356,"Honiara, Solomon Islands",-9.43779755,159.962417478605,7.400966357,1857
1357,"Mogadishu, Somalia",2.0349312,45.3419183,9.548502401,1857
1358,"Pretoria, South Africa",-25.7459277,28.1879101,13.44926031,1857
1359,"Seoul, South Korea",37.5666791,126.9782914,8.391848051,1857
1360,"Juba, South Sudan",4.8459246,31.5959173,25.61732586,1857
1361,"Madrid, Spain",40.4167047,-3.7035825,5.885329058,1857
1362,"Colombo, Sri Lanka",6.9388614,79.8542005,8.077650198,1857
1363,"Khartoum, Sudan",15.5635972,32.5349123,36.05568577,1857
1364,"Paramaribo, Suriname",5.8247628,-55.1703941,15.21278985,1857
1365,"Stockholm, Sweden",59.3251172,18.0710935,5.381013309,1857
1366,"Bern, Switzerland",46.9484742,7.4521749,17.31749111,1857
1367,"Damascus, Syria",33.5145227857709,36.2904335592578,11.94495672,1857
1368,"Taipei, Taiwan",25.0375198,121.5636796,7.185766653,1857
1369,"Dushanbe, Tajikistan",38.5856947,68.7603746751885,15.42858888,1857
1370,"Dar es Salaam, Tanzania",-6.8160837,39.2803583,10.91319095,1857
1371,"Bangkok, Thailand",13.7524938,100.4935089,10.92361456,1857
1372,"Lomé, Togo",6.15803455,1.25168237324663,33.04101818,1857
1373,"Nukuʻalofa, Tonga",-21.1343401,-175.201808,4.670006254,1857
1374,"Tunis, Tunisia",36.8002068,10.1857757,12.85346569,1857
1375,"Ankara, Turkey",39.7160439,32.7059948,7.080916175,1857
1376,"Ashgabat, Turkmenistan",37.9404648,58.3823487,29.24819178,1857
1377,"Kampala, Uganda",0.3177137,32.5813539,17.21625278,1857
1378,"Kyiv, Ukraine",50.4500336,30.5241361,17.20548619,1857
1379,"Abu Dhabi, UAE",24.4538352,54.3774014,21.14550074,1857
1380,"London, United Kingdom",51.4893335,-0.144055084527687,36.21996251,1857
1381,"Washington, D.C., USA",38.9240943816741,-77.0091011073296,17.49184367,1857
1382,"Tashkent, Uzbekistan",41.3123363,69.2787079,18.40954575,1857
1383,"Port Vila, Vanuatu",-17.7414972,168.3150163,7.306995104,1857
1384,"Vatican City, Vatican City",41.903411,12.4528527,12.61339154,1857
1385,"Caracas, Venezuela",10.5060934,-66.9146008,14.89546161,1857
1386,"Hanoi, Vietnam",21.0283334,105.854041,9.133863262,1857
1387,"Sana'a, Yemen",15.3538569,44.2058841,18.63507529,1857
1388,"Lusaka, Zambia",-15.4163395,28.2818414,15.85981451,1857
1389,"Harare, Zimbabwe",-17.8567035,31.0601584,14.57327664,1857
1390,"Leeds, United Kingdom",53.7974185,-1.5437941,33.41983886,1857
1391,"Exeter, United Kingdom",50.7256138,-3.5269209,20.14505411,1857
1392,"Edinburgh, United Kingdom",55.9533456,-3.1883749,17.13723633,1857
1393,"Los Angeles, USA",34.0536909,-118.242766,9.974819184,1857
1394,"Nanjing, China",32.0438284,118.7788631,13.63546342,1857
1395,"Shanghai, China",31.2312707,121.4700152,11.55611204,1857
1396,"Chennai, India",13.0836939,80.270186,12.9370815,1857
1397,"Ahmedabad, India",23.0215374,72.5800568,33.71806432,1857
1398,"Fairbanks, USA",64.837845,-147.716675,22.22376225,1857
1399,"Birmingham, UK",52.4796992,-1.9026911,30.09593374,1857
1400,"São Paulo, Brazil",-23.5506507,-46.6333824,2.554366876,1857
1401,"Singapore, Singapore.1",1.357107,103.8194992,6.689861579,1857
1402,"Cape Town, South Africa",-33.928992,18.417396,3.814195027,1857
1403,"Birmingham, United Kingdom",52.4796992,-1.9026911,30.09593374,1857
1404,"Cardiff, United Kingdom",51.4816546,-3.1791934,45.68613597,1857
1405,"Belfast, United Kingdom",54.596391,-5.9301829,12.52056035,1857
1406,"Reykjavík, Iceland",64.145981,-21.9422367,4.226953771,1857
1407,"Yakutsk, Russia",62.0274078,129.7319787,4.542323806,1857
1408,"Kabul, Afghanistan",34.5260109,69.1776838,16.3062606,1858
1409,"Tirana, Albania",41.3281482,19.8184435,10.52605758,1858
1410,"Algiers, Algeria",36.7729309,3.0588291,6.251932754,1858
1411,"Luanda, Angola",-8.8272699,13.2439512,21.57103008,1858
1412,"Buenos Aires, Argentina",-34.6073387,-58.4432852,5.589403651,1858
1413,"Yerevan, Armenia",40.1777112,44.5126233,13.17698851,1858
1414,"Sydney, Australia",-33.8698439,151.2082848,3.320150414,1858
1415,"Canberra, Australia",-35.2975906,149.1012676,4.184285499,1858
1416,"Baku, Azerbaijan",40.3755885,49.8328009,15.87640792,1858
1417,"Manama, Bahrain",-8.79691,125.45785,25.83552756,1858
1418,"Dhaka, Bangladesh",23.7644025,90.389015,32.04317187,1858
1419,"Minsk, Belarus",53.9024716,27.5618225,14.72232001,1858
1420,"Brussels, Belgium",50.8550018,4.35123337611662,19.55919106,1858
1421,"Cotonou, Benin",6.3676953,2.4252507,21.54384573,1858
1422,"Thimphu, Bhutan",27.4713546,89.6336729,10.74656171,1858
1423,"La Paz, Bolivia",-16.4955455,-68.1336229,12.71726292,1858
1424,"Gaborone, Botswana",-24.6581357,25.9088474,9.305289266,1858
1425,"Brasília, Brazil",-10.3333333,-53.2,4.316114565,1858
1426,"Sofia, Bulgaria",-15.2538402,48.2562163,13.71810717,1858
1427,"Ouagadougou, Burkina Faso",12.3681873,-1.5270944,39.03578146,1858
1428,"Bujumbura, Burundi",-3.3638125,29.3675028,16.93438579,1858
1429,"Phnom Penh, Cambodia",11.568271,104.9224426,28.07903137,1858
1430,"Yaoundé, Cameroon",3.8689867,11.5213344,35.55469876,1858
1431,"Ottawa, Canada",45.4110870626566,-75.7083256476122,7.522217758,1858
1432,"Bangui, CAR",4.3635118,18.5835913,34.32890487,1858
1433,"N'Djaména, Chad",12.1191543,15.0502758,43.1673706,1858
1434,"Santiago, Chile",-33.4377756,-70.6504502,4.234083676,1858
1435,"Hangzhou, China",30.2489634,120.2052342,14.11711892,1858
1436,"Beijing, China",40.190632,116.412144,11.36732212,1858
1437,"Bogotá, Colombia",4.6533816,-74.0836333,7.387793694,1858
1438,"Brazzaville, Congo",-4.2694407,15.2712256,36.63507586,1858
1439,"San José, Costa Rica",9.9325427,-84.0795782,13.22535343,1858
1440,"Abidjan, Côte d'Ivoire",5.320357,-4.016107,14.68534227,1858
1441,"Zagreb, Croatia",45.8130967,15.9772795,12.98530602,1858
1442,"Havana, Cuba",23.135305,-82.3589631,5.432257253,1858
1443,"Nicosia, Cyprus",35.1746503,33.3638783,10.10643789,1858
1444,"Prague, Czechia",50.0874654,14.4212535,20.13004033,1858
1445,"Kinshasa, DRC",-4.3217055,15.3125974,36.08761481,1858
1446,"Copenhagen, Denmark",55.6867243,12.5700724,10.60240769,1858
1447,"Djibouti, Djibouti",11.8145966,42.8453061,30.64673753,1858
1448,"Cairo, Egypt",30.0443879,31.2357257,18.11754833,1858
1449,"San Salvador, El Salvador",13.6989939,-89.1914249,13.35570779,1858
1450,"Malabo, Equatorial Guinea",3.741877,8.7740663,29.59280252,1858
1451,"Asmara, Eritrea",15.3389667,38.9326763,18.86198865,1858
1452,"Addis Ababa, Ethiopia",9.0358287,38.7524127,5.21468164,1858
1453,"Suva, Fiji",-18.1415884,178.4421662,6.133777501,1858
1454,"Paris, France",48.8534951,2.3483915,18.50561953,1858
1455,"Libreville, Gabon",0.4086518,9.4418849,18.9693566,1858
1456,"Tbilisi, Georgia",41.6934591,44.8014495,10.38582005,1858
1457,"Berlin, Germany",52.510885,13.3989367,19.04247574,1858
1458,"Accra, Ghana",5.5571096,-0.2012376,20.70299532,1858
1459,"Athens, Greece",37.9887791133275,23.7191086388293,9.930621684,1858
1460,"Guatemala City, Guatemala",14.6416142,-90.5132836,10.66974528,1858
1461,"Conakry, Guinea",9.5170602,-13.6998434,24.9665515,1858
1462,"Bissau, Guinea-Bissau",11.87018055,-15.6077045647727,28.81439312,1858
1463,"Port-au-Prince, Haiti",18.547327,-72.3395928,9.738362351,1858
1464,"Tegucigalpa, Honduras",14.1057433,-87.2040052,19.22606775,1858
1465,"Budapest, Hungary",47.48138955,19.1460941269125,30.59313804,1858
1466,"Delhi, India",28.6273928,77.1716954,54.15251541,1858
1467,"Jakarta, Indonesia",-6.175247,106.8270488,7.653853104,1858
1468,"Tehran, Iran",35.6892523,51.3896004,16.19531156,1858
1469,"Baghdad, Iraq",33.3061701,44.3872213,28.06122964,1858
1470,"Dublin, Ireland",53.3493795,-6.2605593,9.650782231,1858
1471,"Jerusalem, Israel",31.7788242,35.2257626,9.896562836,1858
1472,"Rome, Italy",41.8933203,12.4829321,12.66074191,1858
1473,"Tokyo, Japan",35.6821936,139.762221,7.176507268,1858
1474,"Amman, Jordan",31.9515694,35.9239625,13.28892438,1858
1475,"Temirtau, Kazakhstan",50.0587825,72.9535681,10.90198304,1858
1476,"Astana, Kazakhstan",51.1282205,71.4306682,9.826575178,1858
1477,"Nairobi, Kenya",-1.30261485,36.8288420181373,8.624332103,1858
1478,"Kuwait City, Kuwait",29.3796532,47.9734174,34.90028173,1858
1479,"Bishkek, Kyrgyzstan",42.8777895,74.6066926,16.43337739,1858
1480,"Vientiane, Laos",17.9640988,102.6133707,32.56539364,1858
1481,"Riga, Latvia",56.9493977,24.1051846,16.94823799,1858
1482,"Monrovia, Liberia",6.328034,-10.797788,14.56767808,1858
1483,"Tripoli, Libya",32.896672,13.1777923,16.04059197,1858
1484,"Vilnius, Lithuania",54.6870458,25.2829111,11.41860064,1858
1485,"Luxembourg, Luxembourg",49.6112768,6.129799,16.21038471,1858
1486,"Antananarivo, Madagascar",-18.9100122,47.5255809,12.8083444,1858
1487,"Lilongwe, Malawi",-13.9875107,33.768144,14.48974701,1858
1488,"Kuala Lumpur, Malaysia",3.1516964,101.6942371,5.068323364,1858
1489,"Bamako, Mali",12.61326555,-7.9847391362413,28.86694573,1858
1490,"Valletta, Malta",35.8989818,14.5136759,9.609338329,1858
1491,"Nouakchott, Mauritania",18.0618918,-15.9311481578329,56.9014602,1858
1492,"Port Louis, Mauritius",-20.1624522,57.5028044,13.52849806,1858
1493,"Mexico City, Mexico",19.4326296,-99.1331785,7.878760201,1858
1494,"Chisinau, Moldova",47.0245117,28.8322923,15.83143517,1858
1495,"Ulaanbaatar, Mongolia",47.94097405,106.917963752256,30.14457995,1858
1496,"Podgorica, Montenegro",42.4415238,19.2621081,11.41102617,1858
1497,"Rabat, Morocco",34.02236,-6.8340222,8.175448129,1858
1498,"Maputo, Mozambique",-25.966213,32.56745,10.40939049,1858
1499,"Windhoek, Namibia",-22.5776104,17.0772739,10.59133737,1858
1500,"Kathmandu, Nepal",27.708317,85.3205817,17.84884059,1858
1501,"Amsterdam, Netherlands",52.3730796,4.8924534,16.04419034,1858
1502,"Wellington, New Zealand",-41.2887953,174.7772114,5.283793922,1858
1503,"Managua, Nicaragua",12.1544035,-86.2737642,12.77506681,1858
1504,"Niamey, Niger",13.524834,2.109823,39.54368261,1858
1505,"Abuja, Nigeria",9.0643305,7.4892974,38.45403641,1858
1506,"Pyongyang, North Korea",39.0167979,125.7473609,14.57327478,1858
1507,"Skopje, North Macedonia",41.9961816,21.4319213,11.58184191,1858
1508,"Oslo, Norway",59.9133301,10.7389701,7.002155029,1858
1509,"Muscat, Oman",23.5882019,58.3829448,27.27185375,1858
1510,"Islamabad, Pakistan",33.6938118,73.0651511,20.58825514,1858
1511,"Panama City, Panama",8.6671353550533,-80.8169594275597,10.12656518,1858
1512,"Asunción, Paraguay",-25.2800459,-57.6343814,10.78022362,1858
1513,"Lima, Peru",-12.0621065,-77.0365256,6.774450109,1858
1514,"Manila, Philippines",14.5906346,120.9799964,11.99847523,1858
1515,"Warsaw, Poland",52.2337172,21.0714322356365,18.86088934,1858
1516,"Lisbon, Portugal",38.7077507,-9.1365919,10.23353112,1858
1517,"Doha, Qatar",24.73677015,81.4466022001494,30.83533462,1858
1518,"Bucharest, Romania",44.4361414,26.1027202,14.5639385,1858
1519,"Moscow, Russia",55.7505412,37.6174782,23.78647381,1858
1520,"Kigali, Rwanda",-1.8859597,30.1296751,14.85684367,1858
1521,"Apia, Samoa",-13.8344639,-171.7649144,4.498999607,1858
1522,"San Marino, San Marino",43.9458623,12.458306,11.89340841,1858
1523,"São Tomé, São Tomé and Príncipe",0.3389242,6.7313031,12.88770859,1858
1524,"Riyadh, Saudi Arabia",24.638916,46.7160104,62.13159925,1858
1525,"Dakar, Senegal",14.693425,-17.447938,35.15810142,1858
1526,"Belgrade, Serbia",44.8178131,20.4568974,7.896106896,1858
1527,"Victoria, Seychelles",-36.5986096,144.6780052,7.465137778,1858
1528,"Freetown, Sierra Leone",8.479004,-13.26795,19.40870205,1858
1529,"Singapore, Singapore",1.357107,103.8194992,6.616703718,1858
1530,"Bratislava, Slovakia",48.1516988,17.1093063,24.61264914,1858
1531,"Ljubljana, Slovenia",46.0500268,14.5069289,11.44371249,1858
1532,"Honiara, Solomon Islands",-9.43779755,159.962417478605,6.904646898,1858
1533,"Mogadishu, Somalia",2.0349312,45.3419183,9.244215829,1858
1534,"Pretoria, South Africa",-25.7459277,28.1879101,14.19560118,1858
1535,"Seoul, South Korea",37.5666791,126.9782914,8.619982564,1858
1536,"Juba, South Sudan",4.8459246,31.5959173,25.79949093,1858
1537,"Madrid, Spain",40.4167047,-3.7035825,5.376426034,1858
1538,"Colombo, Sri Lanka",6.9388614,79.8542005,8.151411804,1858
1539,"Khartoum, Sudan",15.5635972,32.5349123,34.36223906,1858
1540,"Paramaribo, Suriname",5.8247628,-55.1703941,15.3272973,1858
1541,"Stockholm, Sweden",59.3251172,18.0710935,5.228269971,1858
1542,"Bern, Switzerland",46.9484742,7.4521749,16.18102505,1858
1543,"Damascus, Syria",33.5145227857709,36.2904335592578,12.13053436,1858
1544,"Taipei, Taiwan",25.0375198,121.5636796,7.045233545,1858
1545,"Dushanbe, Tajikistan",38.5856947,68.7603746751885,17.28834835,1858
1546,"Dar es Salaam, Tanzania",-6.8160837,39.2803583,10.72691269,1858
1547,"Bangkok, Thailand",13.7524938,100.4935089,10.94394212,1858
1548,"Lomé, Togo",6.15803455,1.25168237324663,29.52513433,1858
1549,"Nukuʻalofa, Tonga",-21.1343401,-175.201808,4.616887377,1858
1550,"Tunis, Tunisia",36.8002068,10.1857757,12.55537469,1858
1551,"Ankara, Turkey",39.7160439,32.7059948,7.650774845,1858
1552,"Ashgabat, Turkmenistan",37.9404648,58.3823487,28.68919775,1858
1553,"Kampala, Uganda",0.3177137,32.5813539,16.46518949,1858
1554,"Kyiv, Ukraine",50.4500336,30.5241361,17.39804703,1858
1555,"Abu Dhabi, UAE",24.4538352,54.3774014,21.8950772,1858
